NAME,MUNI_TYPE,POP_1990,POP_2000,POP_2010,Pop_Density_1990,Pop_Density_2000,Pop_Density_2010,Pop_Dens_change_90-00,Pop_Dens_change_00-10,Pop_Dens_change_90-10,Area_square_miles,Longitude,Latitude
Adams,town,4977,4782,5143,117.430,112.829,121.347,-4.601,8.518,3.917,42.383,-76.037914,43.851068
Addison,town,2645,2640,2595,103.005,102.810,101.058,-0.195,-1.752,-1.947,25.678,-77.240435,42.137179
Afton,town,2972,2977,2851,63.662,63.770,61.071,0.107,-2.699,-2.592,46.684,-75.52419,42.227546
Alabama,town,1998,1881,1869,38.406,36.157,35.927,-2.249,-0.231,-2.480,52.023,-78.387795,43.082029
Albany,city,101082,95658,97856,4609.456,4362.116,4462.347,-247.341,100.231,-147.109,21.929,-73.79855,42.666432
Albion,town,2043,2083,2073,42.721,43.558,43.349,0.836,-0.209,0.627,47.822,-76.031414,43.494674
Albion,town,8178,8042,8468,322.437,317.075,333.871,-5.362,16.796,11.434,25.363,-78.208041,43.232285
Alden,town,10372,10470,10865,300.131,302.967,314.397,2.836,11.430,14.266,34.558,-78.521041,42.911386
Alexander,town,2233,2451,2534,62.731,68.856,71.187,6.124,2.332,8.456,35.596,-78.250236,42.913706
Alexandria,town,3949,4097,4061,46.809,48.563,48.136,1.754,-0.427,1.328,84.365,-75.875388,44.314641
Alfred,town,5791,5140,5237,183.254,162.654,165.723,-20.601,3.070,-17.531,31.601,-77.789147,42.238555
Allegany,town,8327,8230,8004,115.302,113.959,110.830,-1.343,-3.129,-4.473,72.219,-78.521485,42.086948
Allen,town,406,462,448,11.092,12.622,12.240,1.530,-0.382,1.147,36.601,-78.015112,42.391384
Alma,town,846,847,842,23.167,23.195,23.058,0.027,-0.137,-0.110,36.517,-78.015105,42.042978
Almond,town,1640,1604,1633,35.833,35.046,35.680,-0.787,0.634,-0.153,45.768,-77.786575,42.344856
Altona,town,2775,3160,2887,27.369,31.167,28.474,3.797,-2.693,1.105,101.391,-73.666298,44.849769
Amboy,town,1010,1312,1263,26.767,34.771,33.472,8.004,-1.299,6.705,37.733,-75.931103,43.379248
Amenia,town,5195,4048,4436,118.997,92.724,101.612,-26.273,8.888,-17.386,43.656,-73.553593,41.824233
Amherst,town,111711,116510,122366,2084.432,2173.978,2283.246,89.545,109.268,198.813,53.593,-78.756981,43.011666
Amity,town,2255,2245,2308,65.142,64.853,66.673,-0.289,1.820,1.531,34.617,-78.016966,42.218307
Amsterdam,city,20714,18355,18620,3328.971,2949.853,2992.441,-379.118,42.588,-336.529,6.222,-74.19092,42.94212
Amsterdam,town,5962,5820,5566,196.626,191.943,183.566,-4.683,-8.377,-13.060,30.322,-74.166886,42.955185
Ancram,town,1510,1513,1573,35.331,35.401,36.805,0.070,1.404,1.474,42.739,-73.582205,42.035167
Andes,town,1291,1356,1301,11.519,12.099,11.608,0.580,-0.491,0.089,112.074,-74.790246,42.130595
Andover,town,1981,1945,1830,50.103,49.192,46.284,-0.910,-2.909,-3.819,39.539,-77.806673,42.151174
Angelica,town,1446,1411,1403,39.642,38.682,38.463,-0.960,-0.219,-1.179,36.477,-78.015229,42.3038
Annsville,town,2786,2956,3012,46.064,48.875,49.801,2.811,0.926,3.737,60.481,-75.622714,43.349135
Antwerp,town,1856,1793,1846,17.089,16.509,16.997,-0.580,0.488,-0.092,108.610,-75.602406,44.217106
Arcade,town,3938,4184,4205,83.575,88.795,89.241,5.221,0.446,5.666,47.120,-78.386262,42.563283
Arcadia,town,14855,14889,14244,284.867,285.519,273.150,0.652,-12.369,-11.717,52.147,-77.085769,43.087122
Argyle,town,3031,3688,3782,52.438,63.804,65.431,11.366,1.626,12.993,57.802,-73.469854,43.238192
Arietta,town,300,293,304,0.912,0.891,0.924,-0.021,0.033,0.012,329.023,-74.569685,43.52598
Arkwright,town,1040,1126,1061,29.081,31.486,29.668,2.405,-1.818,0.587,35.762,-79.23672,42.392023
Ashford,town,2162,2223,2132,42.059,43.246,41.475,1.187,-1.770,-0.584,51.404,-78.645293,42.441072
Ashland,town,1966,1951,1695,133.681,132.661,115.254,-1.020,-17.407,-18.427,14.707,-76.754247,42.024568
Ashland,town,803,752,784,32.144,30.102,31.383,-2.042,1.281,-0.761,24.981,-74.334266,42.319019
Athens,town,3561,3991,4089,123.286,138.173,141.566,14.887,3.393,18.280,28.884,-73.858122,42.280063
Attica,town,7383,6028,7702,204.661,167.100,213.504,-37.561,46.404,8.843,36.074,-78.2489,42.825721
Auburn,city,31258,28574,27687,3727.104,3407.073,3301.310,-320.032,-105.763,-425.795,8.387,-76.568377,42.933852
Augusta,town,2070,1966,2020,74.601,70.853,72.799,-3.748,1.946,-1.802,27.748,-75.502329,42.977163
Aurelius,town,2913,2936,2792,91.006,91.725,87.226,0.719,-4.499,-3.780,32.009,-76.669274,42.927667
Aurora,town,13433,13996,13782,368.107,383.535,377.671,15.428,-5.864,9.564,36.492,-78.637311,42.73817
Ausable,town,2870,3015,3146,65.506,68.816,71.806,3.310,2.990,6.300,43.812,-73.535185,44.5156
Austerlitz,town,1456,1453,1654,29.826,29.765,33.882,-0.061,4.118,4.056,48.816,-73.507615,42.312422
Ava,town,792,725,676,21.039,19.259,17.957,-1.780,-1.302,-3.081,37.645,-75.452634,43.421538
Avoca,town,2269,2314,2264,62.588,63.829,62.450,1.241,-1.379,-0.138,36.253,-77.447826,42.418132
Avon,town,6283,6443,7164,152.373,156.254,173.739,3.880,17.485,21.366,41.234,-77.734007,42.895492
Babylon,town,202889,211792,213603,1986.991,2074.182,2091.918,87.191,17.736,104.927,102.109,-73.354514,40.663359
Bainbridge,town,3445,3401,3308,99.065,97.800,95.125,-1.265,-2.674,-3.940,34.775,-75.476796,42.295878
Baldwin,town,829,853,832,32.118,33.048,32.234,0.930,-0.814,0.116,25.811,-76.663625,42.099605
Ballston,town,8078,8729,9776,267.813,289.395,324.107,21.583,34.712,56.294,30.163,-73.879691,42.954069
Bangor,town,2080,2147,2224,48.247,49.801,51.587,1.554,1.786,3.340,43.112,-74.430331,44.837544
Barker,town,2714,2738,2732,65.031,65.606,65.462,0.575,-0.144,0.431,41.734,-75.912734,42.280246
Barre,town,2093,2124,2025,38.007,38.570,36.772,0.563,-1.798,-1.235,55.068,-78.212912,43.172288
Barrington,town,1195,1396,1681,32.158,37.567,45.236,5.409,7.669,13.078,37.161,-77.048765,42.529768
Barton,town,8925,9066,8858,149.554,151.917,148.432,2.363,-3.485,-1.123,59.677,-76.498366,42.081368
Batavia,city,16310,16256,15465,3086.496,3076.277,2926.588,-10.219,-149.688,-159.907,5.284,-78.180058,42.998657
Batavia,town,6055,5915,6809,125.093,122.201,140.670,-2.892,18.470,15.577,48.404,-78.226065,43.001209
Bath,town,12724,12097,12379,132.142,125.630,128.559,-6.512,2.929,-3.583,96.291,-77.307833,42.321948
Beacon,city,13243,13808,15541,2726.993,2843.338,3200.197,116.345,356.859,473.203,4.856,-73.965404,41.503632
Bedford,town,16906,18133,17335,427.449,458.472,438.296,31.023,-20.177,10.847,39.551,-73.667446,41.224967
Beekman,town,10447,11452,14621,340.352,373.094,476.337,32.742,103.243,135.985,30.695,-73.694449,41.604148
Beekmantown,town,5108,5326,5545,73.447,76.582,79.731,3.135,3.149,6.284,69.546,-73.499576,44.772039
Belfast,town,1539,1714,1663,42.056,46.838,45.445,4.782,-1.394,3.389,36.594,-78.133197,42.30428
Bellmont,town,1246,1423,1434,7.460,8.520,8.585,1.060,0.066,1.126,167.026,-74.089689,44.748204
Bennington,town,3046,3349,3359,55.065,60.543,60.724,5.478,0.181,5.658,55.316,-78.396756,42.82463
Benson,town,168,201,192,2.017,2.413,2.305,0.396,-0.108,0.288,83.309,-74.351805,43.281549
Benton,town,2380,2640,2836,53.549,59.399,63.809,5.850,4.410,10.260,44.445,-77.051816,42.722439
Bergen,town,2794,3182,3120,101.408,115.491,113.240,14.082,-2.250,11.832,27.552,-77.971153,43.091935
Berkshire,town,1303,1366,1412,42.740,44.806,46.315,2.066,1.509,3.575,30.487,-76.177697,42.305301
Berlin,town,1929,1901,1880,31.980,31.516,31.168,-0.464,-0.348,-0.812,60.319,-73.373982,42.666892
Berne,town,3053,2846,2794,47.263,44.059,43.254,-3.205,-0.805,-4.010,64.596,-74.115917,42.592808
Bethany,town,1808,1760,1765,50.069,48.740,48.879,-1.329,0.138,-1.191,36.110,-78.13316,42.913841
Bethel,town,3693,4362,4255,41.059,48.497,47.307,7.438,-1.190,6.248,89.944,-74.850719,41.687676
Bethlehem,town,27552,31304,33656,557.788,633.747,681.363,75.959,47.616,123.575,49.395,-73.821415,42.584996
Big Flats,town,7596,7224,7731,167.658,159.448,170.638,-8.211,11.190,2.980,45.306,-76.913901,42.138803
Binghamton,city,53008,47380,47376,4783.834,4275.922,4275.561,-507.912,-0.361,-508.273,11.081,-75.909213,42.101441
Binghamton,town,5006,4969,4942,198.373,196.907,195.837,-1.466,-1.070,-2.536,25.235,-75.911697,42.041998
Birdsall,town,232,268,221,6.429,7.427,6.124,0.998,-1.302,-0.305,36.085,-77.897621,42.391511
Black Brook,town,1556,1660,1497,11.607,12.382,11.167,0.776,-1.216,-0.440,134.060,-73.794757,44.512143
Bleecker,town,515,573,533,8.673,9.649,8.976,0.977,-0.674,0.303,59.382,-74.383129,43.173465
Blenheim,town,332,330,377,9.697,9.639,11.012,-0.058,1.373,1.314,34.236,-74.489414,42.483626
Blooming Grove,town,16673,17351,18028,467.575,486.589,505.574,19.014,18.986,37.999,35.658,-74.183807,41.395002
Bolivar,town,2361,2223,2189,65.738,61.896,60.949,-3.842,-0.947,-4.789,35.915,-78.132708,42.043259
Bolton,town,1855,2117,2326,21.553,24.597,27.026,3.044,2.428,5.473,86.066,-73.653201,43.581416
Bombay,town,1158,1192,1357,20.381,20.980,23.884,0.598,2.904,3.502,56.817,-74.604533,44.941922
Boonville,town,4246,4572,4555,58.616,63.116,62.882,4.500,-0.235,4.266,72.438,-75.292886,43.466205
Boston,town,7445,7897,8023,207.689,220.298,223.813,12.609,3.515,16.124,35.847,-78.755512,42.652858
Bovina,town,550,664,633,12.261,14.803,14.112,2.541,-0.691,1.850,44.856,-74.758987,42.267774
Boylston,town,443,505,549,11.308,12.890,14.013,1.583,1.123,2.706,39.177,-75.96048,43.655307
Bradford,town,699,763,855,28.158,30.736,34.442,2.578,3.706,6.284,24.824,-77.132987,42.330916
Brandon,town,394,542,577,9.532,13.113,13.959,3.581,0.847,4.427,41.334,-74.418281,44.738204
Brant,town,2119,1906,2065,60.508,54.426,58.966,-6.082,4.540,-1.542,35.020,-79.031832,42.582133
Brasher,town,2124,2337,2512,23.093,25.409,27.312,2.316,1.903,4.219,91.974,-74.731514,44.876255
Bridgewater,town,1591,1671,1522,66.794,70.153,63.898,3.359,-6.255,-2.897,23.819,-75.25874,42.905726
Brighton,town,34455,35588,36609,2206.186,2278.733,2344.109,72.547,65.376,137.923,15.617,-77.583619,43.117511
Brighton,town,1511,1682,1435,18.238,20.302,17.320,2.064,-2.981,-0.917,82.851,-74.238785,44.480201
Bristol,town,2071,2421,2315,56.420,65.955,63.068,9.535,-2.888,6.647,36.707,-77.423762,42.806482
Broadalbin,town,4397,5066,5260,110.493,127.305,132.180,16.811,4.875,21.687,39.794,-74.157394,43.076474
Brookfield,town,2225,2403,2545,28.548,30.832,32.654,2.284,1.822,4.106,77.938,-75.343565,42.807812
Brookhaven,town,407779,448248,486040,798.932,878.220,952.263,79.288,74.043,153.331,510.405,-72.964017,40.846206
Broome,town,926,947,973,19.253,19.690,20.230,0.437,0.541,0.977,48.096,-74.292172,42.502902
Brownville,town,5604,5843,6263,76.908,80.188,85.952,3.280,5.764,9.044,72.866,-76.072113,44.021372
Brunswick,town,11093,11664,11941,249.318,262.151,268.377,12.833,6.226,19.059,44.493,-73.590201,42.755678
Brutus,town,5013,4777,4464,223.404,212.886,198.938,-10.517,-13.949,-24.466,22.439,-76.545513,43.045595
Buffalo,city,328123,292648,261310,6357.109,5669.811,5062.663,-687.299,-607.148,-1294.446,51.615,-78.857994,42.893153
Burke,town,1231,1359,1465,27.750,30.636,33.025,2.886,2.390,5.275,44.360,-74.182121,44.926192
Burlington,town,1036,1085,1140,23.067,24.158,25.383,1.091,1.225,2.316,44.912,-75.141595,42.721848
Burns,town,1299,1248,1180,47.690,45.817,43.321,-1.872,-2.496,-4.369,27.239,-77.781943,42.439427
Busti,town,8050,7760,7351,157.840,152.154,144.135,-5.686,-8.019,-13.706,51.001,-79.313813,42.049255
Butler,town,2152,2277,2064,57.912,61.275,55.543,3.364,-5.732,-2.368,37.160,-76.76829,43.174413
Butternuts,town,1626,1792,1786,29.915,32.969,32.859,3.054,-0.110,2.944,54.354,-75.321718,42.467537
Byron,town,2345,2493,2369,72.546,77.125,73.289,4.579,-3.836,0.742,32.324,-78.065335,43.085129
Cairo,town,5418,6355,6670,90.176,105.771,111.014,15.595,5.243,20.838,60.082,-74.020474,42.296482
Caledonia,town,4441,4567,4255,100.383,103.232,96.179,2.848,-7.052,-4.204,44.240,-77.828664,42.953377
Callicoon,town,3024,3052,3057,61.852,62.424,62.527,0.573,0.102,0.675,48.891,-74.921269,41.834119
Cambria,town,4779,5393,5839,120.153,135.590,146.803,15.437,11.213,26.650,39.774,-78.820246,43.176602
Cambridge,town,1938,2152,2021,53.279,59.162,55.560,5.883,-3.601,2.282,36.375,-73.447232,43.000762
Camden,town,5134,5028,4934,94.901,92.942,91.204,-1.959,-1.738,-3.697,54.098,-75.77951,43.343651
Cameron,town,916,1034,945,19.598,22.123,20.219,2.525,-1.904,0.620,46.739,-77.404986,42.213123
Camillus,town,23625,23152,24167,687.612,673.845,703.387,-13.767,29.542,15.775,34.358,-76.305558,43.053862
Campbell,town,3658,3691,3406,89.741,90.551,83.559,0.810,-6.992,-6.182,40.762,-77.162248,42.228128
Canaan,town,1773,1820,1710,47.985,49.257,46.280,1.272,-2.977,-1.705,36.949,-73.45903,42.395073
Canadice,town,1857,1846,1664,57.253,56.914,51.303,-0.339,-5.611,-5.950,32.435,-77.554425,42.715964
Canajoharie,town,3909,3797,3730,90.880,88.276,86.719,-2.604,-1.558,-4.162,43.013,-74.605139,42.865613
Canandaigua,city,10725,11264,10545,2214.343,2325.628,2177.179,111.285,-148.449,-37.164,4.843,-77.280474,42.888569
Canandaigua,town,7160,7649,10020,114.498,122.318,160.233,7.820,37.916,45.735,62.534,-77.318235,42.860706
Candor,town,5310,5317,5305,56.122,56.196,56.069,0.074,-0.127,-0.053,94.616,-76.332541,42.231975
Caneadea,town,2551,2694,2542,70.143,74.075,69.895,3.932,-4.179,-0.247,36.369,-78.132853,42.391807
Canisteo,town,3636,3583,3391,66.880,65.905,62.374,-0.975,-3.532,-4.506,54.366,-77.543864,42.235596
Canton,town,11120,10334,10995,105.013,97.590,103.832,-7.423,6.242,-1.180,105.892,-75.197872,44.580216
Cape Vincent,town,2768,3345,2777,27.442,33.162,27.531,5.720,-5.631,0.089,100.867,-76.297448,44.117931
Carlisle,town,1672,1758,1948,48.768,51.276,56.818,2.508,5.542,8.050,34.285,-74.435964,42.751135
Carlton,town,2808,2960,2994,63.218,66.640,67.405,3.422,0.765,4.187,44.418,-78.211883,43.339319
Carmel,town,28816,33006,34305,707.287,810.130,842.014,102.843,31.884,134.727,40.742,-73.723604,41.389851
Caroga,town,1337,1407,1205,24.712,26.006,22.272,1.294,-3.734,-2.440,54.104,-74.500236,43.155081
Caroline,town,3044,2910,3282,55.309,52.874,59.633,-2.435,6.759,4.324,55.036,-76.329722,42.358762
Carroll,town,3539,3635,3524,105.621,108.486,105.173,2.865,-3.313,-0.448,33.507,-79.114812,42.045831
Carrollton,town,1555,1410,1297,29.654,26.889,24.734,-2.765,-2.155,-4.920,52.438,-78.638267,42.062704
Castile,town,3042,2873,2906,79.078,74.684,75.542,-4.393,0.858,-3.535,38.469,-78.020854,42.665318
Catharine,town,1991,1930,1762,59.562,57.737,52.711,-1.825,-5.026,-6.851,33.427,-76.743908,42.34468
Catlin,town,2626,2649,2618,69.142,69.747,68.931,0.606,-0.816,-0.211,37.980,-76.905576,42.244983
Cato,town,2452,2744,2537,67.714,75.778,70.062,8.064,-5.716,2.347,36.211,-76.535604,43.125954
Caton,town,1888,2097,2179,49.780,55.291,57.453,5.511,2.162,7.673,37.927,-77.024884,42.046163
Catskill,town,11965,11849,11775,186.865,185.053,183.898,-1.812,-1.156,-2.967,64.030,-73.943535,42.206318
Cayuta,town,599,545,556,30.220,27.496,28.051,-2.724,0.555,-2.169,19.821,-76.680432,42.268419
Cazenovia,town,6514,6481,7086,126.140,125.501,137.217,-0.639,11.715,11.076,51.641,-75.863587,42.912095
Centerville,town,678,762,822,19.078,21.442,23.130,2.364,1.688,4.052,35.538,-78.249539,42.478988
Champion,town,4574,4361,4494,101.910,97.164,100.127,-4.746,2.963,-1.782,44.883,-75.694756,43.971154
Champlain,town,5796,5791,5754,98.596,98.511,97.882,-0.085,-0.629,-0.714,58.785,-73.43246,44.959115
Charleston,town,1107,1292,1373,25.875,30.199,32.092,4.324,1.893,6.217,42.783,-74.341625,42.822522
Charlotte,town,1528,1713,1729,41.798,46.858,47.296,5.061,0.438,5.498,36.557,-79.237405,42.304938
Charlton,town,3984,3954,4133,121.678,120.761,126.228,-0.916,5.467,4.551,32.742,-73.990284,42.954531
Chateaugay,town,1659,2036,2155,33.312,40.882,43.271,7.570,2.389,9.959,49.802,-74.074468,44.93054
Chatham,town,4413,4249,4128,82.566,79.497,77.233,-3.068,-2.264,-5.332,53.448,-73.580957,42.424904
Chautauqua,town,4554,4666,4464,61.190,62.695,59.981,1.505,-2.714,-1.209,74.424,-79.502198,42.240829
Chazy,town,3890,4181,4284,63.454,68.200,69.881,4.747,1.680,6.427,61.305,-73.459056,44.861657
Cheektowaga,town,99314,94019,88226,3353.686,3174.882,2979.261,-178.804,-195.621,-374.425,29.613,-78.746655,42.908242
Chemung,town,2540,2665,2563,50.747,53.245,51.207,2.497,-2.038,0.460,50.052,-76.618971,42.049278
Chenango,town,12310,11454,11252,358.748,333.802,327.915,-24.946,-5.887,-30.833,34.314,-75.898898,42.195445
Cherry Creek,town,1064,1152,1118,29.034,31.435,30.508,2.401,-0.928,1.474,36.647,-79.119606,42.304209
Cherry Valley,town,1210,1266,1223,29.748,31.124,30.067,1.377,-1.057,0.320,40.676,-74.729317,42.804307
Chester,town,3465,3614,3355,39.903,41.619,38.636,1.716,-2.983,-1.267,86.835,-73.865444,43.688621
Chester,town,9138,12140,11981,363.185,482.498,476.179,119.313,-6.319,112.994,25.161,-74.270922,41.330412
Chesterfield,town,2267,2409,2445,21.621,22.976,23.319,1.354,0.343,1.698,104.850,-73.477441,44.45549
Chili,town,25178,27638,28625,631.581,693.289,718.048,61.708,24.759,86.467,39.865,-77.754046,43.084573
Cicero,town,25560,27982,31632,526.135,575.990,651.122,49.855,75.133,124.988,48.581,-76.066106,43.166153
Cincinnatus,town,1122,1051,1056,44.107,41.316,41.512,-2.791,0.197,-2.595,25.438,-75.920813,42.525738
Clare,town,78,112,105,0.808,1.160,1.088,0.352,-0.073,0.280,96.548,-74.998314,44.361535
Clarence,town,20041,26123,30673,373.173,486.423,571.146,113.250,84.723,197.973,53.704,-78.637493,43.019613
Clarendon,town,2705,3392,3648,76.862,96.383,103.657,19.521,7.274,26.795,35.193,-78.056346,43.174472
Clarkson,town,4517,6072,6736,136.254,183.160,203.189,46.906,20.029,66.935,33.151,-77.922687,43.253247
Clarkstown,town,79346,82082,84187,1683.699,1741.756,1786.424,58.057,44.667,102.725,47.126,-73.965889,41.131912
Clarksville,town,1041,1146,1161,28.571,31.453,31.865,2.882,0.412,3.294,36.435,-78.249748,42.130128
Claverack,town,6414,6401,6021,133.778,133.507,125.581,-0.271,-7.926,-8.197,47.945,-73.68727,42.223465
Clay,town,59749,58805,58206,1219.480,1200.213,1187.988,-19.267,-12.226,-31.493,48.995,-76.195478,43.180847
Clayton,town,4629,4817,5153,44.489,46.296,49.525,1.807,3.229,5.036,104.048,-76.080469,44.200187
Clermont,town,1443,1726,1965,74.980,89.686,102.104,14.705,12.419,27.124,19.245,-73.856056,42.084667
Clifton,town,917,791,751,6.099,5.261,4.995,-0.838,-0.266,-1.104,150.345,-74.886331,44.202433
Clifton Park,town,30117,32995,36705,600.627,658.023,732.012,57.396,73.989,131.385,50.143,-73.824169,42.858848
Clinton,town,663,727,737,9.882,10.836,10.985,0.954,0.149,1.103,67.093,-73.924949,44.949127
Clinton,town,3760,4010,4312,96.896,103.339,111.121,6.443,7.783,14.225,38.804,-73.816997,41.862533
Clymer,town,1474,1501,1698,40.597,41.341,46.767,0.744,5.426,6.169,36.308,-79.586311,42.042234
Cobleskill,town,7270,6407,6625,237.083,208.940,216.049,-28.143,7.109,-21.034,30.664,-74.447669,42.684048
Cochecton,town,1318,1328,1372,35.560,35.830,37.017,0.270,1.187,1.457,37.064,-74.993775,41.6794
Coeymans,town,8158,8151,7418,154.011,153.878,140.040,-0.132,-13.838,-13.970,52.970,-73.883643,42.493585
Cohocton,town,2520,2626,2561,44.867,46.754,45.596,1.887,-1.157,0.730,56.167,-77.48056,42.515662
Cohoes,city,16825,15521,16168,3924.277,3620.131,3771.038,-304.146,150.907,-153.239,4.287,-73.707867,42.773193
Colchester,town,1928,2042,2077,13.571,14.374,14.620,0.802,0.246,1.049,142.063,-74.958567,42.041747
Cold Spring,town,732,751,663,11.378,11.674,10.306,0.295,-1.368,-1.073,64.333,-78.880674,42.091879
Colden,town,2899,3323,3265,81.099,92.960,91.338,11.861,-1.623,10.239,35.746,-78.638531,42.650807
Colesville,town,5590,5441,5232,70.555,68.674,66.037,-1.881,-2.638,-4.519,79.229,-75.662991,42.1742
Collins,town,6020,8307,6601,95.241,131.423,104.433,36.182,-26.990,9.192,63.208,-78.891853,42.499739
Colonie,town,76494,79258,81591,1324.504,1372.363,1412.759,47.859,40.396,88.255,57.753,-73.787464,42.739575
Colton,town,1274,1453,1451,5.007,5.711,5.703,0.704,-0.008,0.696,254.430,-74.791321,44.337668
Columbia,town,1587,1630,1580,45.324,46.552,45.124,1.228,-1.428,-0.200,35.015,-75.042767,42.927831
Columbus,town,869,931,975,23.237,24.895,26.072,1.658,1.177,2.834,37.397,-75.367318,42.696331
Concord,town,8387,8526,8494,119.347,121.325,120.869,1.978,-0.455,1.523,70.274,-78.707425,42.545032
Conesus,town,2196,2353,2473,61.273,65.653,69.002,4.381,3.348,7.729,35.840,-77.661066,42.716866
Conesville,town,684,726,734,17.179,18.234,18.435,1.055,0.201,1.256,39.816,-74.335605,42.396834
Conewango,town,1702,1732,1857,47.084,47.914,51.372,0.830,3.458,4.288,36.148,-79.001494,42.216769
Conklin,town,6265,5940,5441,251.748,238.688,218.637,-13.060,-20.051,-33.111,24.886,-75.834064,42.039675
Conquest,town,1859,1925,1819,51.225,53.044,50.123,1.819,-2.921,-1.102,36.291,-76.649726,43.118722
Constable,town,1203,1428,1566,36.645,43.499,47.703,6.854,4.204,11.058,32.828,-74.286164,44.944141
Constantia,town,4868,5141,4973,48.896,51.638,49.951,2.742,-1.687,1.055,99.558,-75.959807,43.254677
Copake,town,3118,3278,3615,74.144,77.948,85.962,3.805,8.014,11.818,42.053,-73.551232,42.128537
Corinth,town,5935,5985,6531,100.433,101.279,110.519,0.846,9.240,10.086,59.094,-73.886925,43.227445
Corning,city,11938,10842,11183,3650.263,3315.141,3419.408,-335.122,104.267,-230.855,3.270,-77.056278,42.14707
Corning,town,6367,6426,6270,171.036,172.621,168.431,1.585,-4.191,-2.606,37.226,-77.019838,42.139954
Cornwall,town,11270,12307,12646,404.599,441.828,453.998,37.229,12.170,49.399,27.855,-74.053723,41.419905
Cortland,city,19801,18740,19204,5039.398,4769.371,4887.460,-270.027,118.089,-151.938,3.929,-76.178582,42.600353
Cortlandt,town,37357,38467,41592,741.102,763.123,825.118,22.021,61.995,84.016,50.407,-73.901992,41.255022
Cortlandville,town,8054,7919,8509,161.187,158.485,170.293,-2.702,11.808,9.106,49.967,-76.161452,42.589215
Coventry,town,1517,1589,1655,31.218,32.700,34.058,1.482,1.358,2.840,48.593,-75.625446,42.293666
Covert,town,2246,2227,2154,59.762,59.257,57.314,-0.506,-1.942,-2.448,37.582,-76.69895,42.585738
Covington,town,1266,1357,1232,48.356,51.832,47.057,3.476,-4.774,-1.299,26.181,-78.014734,42.832663
Coxsackie,town,7633,8884,8918,198.669,231.229,232.114,32.561,0.885,33.445,38.421,-73.862407,42.346502
Crawford,town,6394,7875,9316,159.408,196.331,232.256,36.923,35.925,72.848,40.111,-74.316824,41.568513
Croghan,town,3071,3161,3093,16.913,17.408,17.034,0.496,-0.374,0.121,181.580,-75.360657,43.970055
Crown Point,town,1963,2119,2024,24.052,25.964,24.800,1.911,-1.164,0.747,81.614,-73.526165,43.952975
Cuba,town,3401,3392,3243,93.310,93.064,88.976,-0.247,-4.088,-4.335,36.448,-78.25024,42.217155
Cuyler,town,850,1036,980,19.540,23.815,22.528,4.276,-1.287,2.988,43.501,-75.937005,42.726283
Danby,town,2858,3007,3329,53.113,55.882,61.867,2.769,5.984,8.753,53.809,-76.472899,42.333003
Dannemora,town,5232,5149,4898,80.045,78.775,74.935,-1.270,-3.840,-5.110,65.363,-73.826136,44.741813
Dansville,town,1811,1977,1842,37.645,41.096,38.289,3.451,-2.806,0.644,48.107,-77.6663,42.469288
Danube,town,1077,1098,1039,36.913,37.633,35.610,0.720,-2.022,-1.302,29.177,-74.801829,42.984314
Darien,town,2979,3061,3158,62.500,64.221,66.256,1.720,2.035,3.755,47.664,-78.386026,42.912108
Davenport,town,2438,2774,2965,46.487,52.893,56.535,6.407,3.642,10.049,52.445,-74.902818,42.45516
Day,town,746,920,856,10.701,13.197,12.279,2.496,-0.918,1.578,69.715,-74.036296,43.326172
Dayton,town,1915,1945,1886,52.705,53.530,51.907,0.826,-1.624,-0.798,36.334,-79.002405,42.391223
De Kalb,town,2153,2213,2434,25.898,26.620,29.278,0.722,2.658,3.380,83.135,-75.354791,44.48694
De Peyster,town,913,936,998,20.261,20.771,22.147,0.510,1.376,1.886,45.062,-75.457348,44.54972
De Witt,town,25148,24071,25838,745.093,713.183,765.536,-31.910,52.353,20.444,33.751,-76.071079,43.050074
Decatur,town,356,410,353,17.171,19.776,17.027,2.605,-2.749,-0.145,20.732,-74.703878,42.661861
Deerfield,town,3942,3906,4273,119.469,118.378,129.500,-1.091,11.123,10.032,32.996,-75.148978,43.180248
Deerpark,town,7832,7858,7901,115.009,115.391,116.023,0.382,0.631,1.013,68.099,-74.662366,41.445623
Delaware,town,2633,2719,2670,73.973,76.389,75.013,2.416,-1.377,1.040,35.594,-75.003585,41.759664
Delhi,town,5015,4629,5117,77.711,71.729,79.291,-5.981,7.562,1.581,64.534,-74.909639,42.273911
Denmark,town,2718,2747,2860,53.159,53.726,55.936,0.567,2.210,2.777,51.130,-75.611153,43.904402
Denning,town,524,516,551,5.127,5.049,5.392,-0.078,0.342,0.264,102.197,-74.483832,41.950549
Deposit,town,1824,1687,1712,40.926,37.853,38.413,-3.074,0.561,-2.513,44.568,-75.377949,42.084369
DeRuyter,town,1458,1532,1589,46.648,49.016,50.839,2.368,1.824,4.191,31.255,-75.85073,42.776868
Diana,town,1743,1661,1709,12.384,11.802,12.143,-0.583,0.341,-0.242,140.742,-75.367825,44.107532
Dickinson,town,751,739,823,16.951,16.680,18.576,-0.271,1.896,1.625,44.304,-74.544857,44.729828
Dickinson,town,5486,5335,5278,1113.476,1082.828,1071.259,-30.648,-11.569,-42.217,4.927,-75.909301,42.130257
Dix,town,4130,4197,3864,112.399,114.223,105.160,1.823,-9.063,-7.239,36.744,-76.908669,42.337001
Dover,town,7778,8565,8699,138.234,152.221,154.602,13.987,2.382,16.368,56.267,-73.573937,41.683925
Dresden,town,561,677,652,9.869,11.909,11.469,2.041,-0.440,1.601,56.847,-73.480983,43.61289
Dryden,town,13251,13532,14435,140.816,143.802,153.398,2.986,9.596,12.582,94.102,-76.356482,42.478741
Duane,town,152,159,174,1.946,2.036,2.228,0.090,0.192,0.282,78.089,-74.2614,44.624862
Duanesburg,town,5474,5808,6122,75.884,80.515,84.867,4.630,4.353,8.983,72.136,-74.180519,42.77986
Dunkirk,city,13989,13131,12563,3084.646,2895.453,2770.206,-189.193,-125.247,-314.440,4.535,-79.332282,42.480245
Dunkirk,town,1482,1387,1318,235.449,220.356,209.394,-15.093,-10.962,-26.055,6.294,-79.331663,42.471915
Durham,town,2324,2592,2725,47.325,52.782,55.490,5.457,2.708,8.166,49.108,-74.146697,42.375733
Eagle,town,1155,1194,1192,31.655,32.724,32.669,1.069,-0.055,1.014,36.487,-78.249728,42.565087
East Bloomfield,town,3258,3361,3634,97.828,100.921,109.118,3.093,8.197,11.290,33.303,-77.423484,42.899461
East Fishkill,town,22101,25589,29029,384.033,444.642,504.416,60.608,59.774,120.383,57.550,-73.782256,41.556566
East Greenbush,town,14076,15560,16473,575.523,636.199,673.528,60.676,37.330,98.006,24.458,-73.697061,42.612277
East Hampton,town,16132,19719,21457,35.982,43.982,47.859,8.001,3.877,11.877,448.337,-72.009665,41.070676
East Otto,town,1003,1105,1062,24.097,26.547,25.514,2.450,-1.033,1.417,41.624,-78.743782,42.400882
East Rochester,town,6932,6650,6587,5326.510,5109.823,5061.414,-216.687,-48.409,-265.096,1.301,-77.486888,43.112211
Eastchester,town,30867,31318,32363,6183.622,6273.971,6483.317,90.349,209.346,299.695,4.992,-73.813338,40.953718
Easton,town,2203,2259,2336,34.775,35.659,36.874,0.884,1.215,2.099,63.351,-73.543752,43.021963
Eaton,town,5362,4826,5255,117.745,105.975,115.395,-11.770,9.420,-2.350,45.539,-75.629004,42.881354
Eden,town,7416,8076,7688,185.898,202.442,192.716,16.544,-9.726,6.818,39.893,-78.878705,42.652697
Edinburg,town,1041,1384,1214,15.834,21.051,18.465,5.217,-2.586,2.631,65.746,-74.070423,43.226157
Edmeston,town,1717,1824,1826,38.474,40.871,40.916,2.398,0.045,2.442,44.628,-75.251917,42.716748
Edwards,town,1083,1148,1156,21.095,22.361,22.516,1.266,0.156,1.422,51.340,-75.26506,44.29735
Elba,town,2407,2439,2370,67.375,68.271,66.340,0.896,-1.931,-1.036,35.725,-78.173936,43.088537
Elbridge,town,6192,6091,5922,161.486,158.852,154.444,-2.634,-4.407,-7.042,38.344,-76.438883,43.053387
Elizabethtown,town,1314,1315,1163,15.982,15.994,14.145,0.012,-1.849,-1.837,82.219,-73.616227,44.173837
Ellenburg,town,1847,1812,1743,17.206,16.880,16.237,-0.326,-0.643,-0.969,107.347,-73.884632,44.839319
Ellery,town,4534,4576,4528,82.207,82.969,82.098,0.762,-0.870,-0.109,55.153,-79.35936,42.187406
Ellicott,town,9455,9280,8714,302.598,296.997,278.883,-5.601,-18.114,-23.715,31.246,-79.237062,42.132376
Ellicottville,town,1607,1738,1598,35.593,38.494,35.394,2.901,-3.101,-0.199,45.149,-78.637423,42.316679
Ellington,town,1615,1639,1643,44.094,44.749,44.858,0.655,0.109,0.764,36.626,-79.119466,42.217061
Ellisburg,town,3386,3541,3474,27.447,28.703,28.160,1.256,-0.543,0.713,123.367,-76.161707,43.745927
Elma,town,10355,11304,11317,299.081,326.490,326.866,27.410,0.375,27.785,34.623,-78.637086,42.823118
Elmira,city,33724,30940,29200,4502.299,4130.623,3898.326,-371.676,-232.297,-603.973,7.490,-76.80971,42.093766
Elmira,town,7440,7199,6934,329.955,319.266,307.514,-10.688,-11.752,-22.440,22.549,-76.77593,42.093903
Enfield,town,3054,3369,3512,82.905,91.456,95.338,8.551,3.882,12.433,36.837,-76.629902,42.436313
Ephratah,town,1556,1693,1682,39.305,42.766,42.488,3.461,-0.278,3.183,39.588,-74.553581,43.041108
Erin,town,2002,2054,1962,45.133,46.305,44.231,1.172,-2.074,-0.902,44.358,-76.672591,42.184445
Erwin,town,6763,7227,8037,172.610,184.453,205.126,11.843,20.673,32.516,39.181,-77.14154,42.137866
Esopus,town,8860,9331,9041,211.246,222.476,215.562,11.230,-6.914,4.316,41.942,-73.993612,41.842972
Esperance,town,2101,2043,2076,105.361,102.453,104.108,-2.909,1.655,-1.254,19.941,-74.310334,42.751704
Essex,town,687,713,671,18.494,19.194,18.063,0.700,-1.131,-0.431,37.148,-73.39764,44.283858
Evans,town,17478,17594,16356,420.735,423.527,393.726,2.792,-29.801,-27.009,41.542,-79.006167,42.652797
Exeter,town,967,954,987,29.613,29.214,30.225,-0.398,1.011,0.612,32.655,-75.083371,42.794197
Fabius,town,1760,1974,1964,37.641,42.217,42.003,4.577,-0.214,4.363,46.758,-75.991233,42.821953
Fairfield,town,1442,1607,1627,34.764,38.742,39.224,3.978,0.482,4.460,41.480,-74.922134,43.127053
Fallsburg,town,11445,12234,12870,144.735,154.713,162.755,9.978,8.043,18.021,79.076,-74.603771,41.739064
Farmersville,town,869,1028,1090,18.065,21.370,22.659,3.305,1.289,4.594,48.104,-78.386527,42.392827
Farmington,town,10381,10585,11825,262.828,267.993,299.387,5.165,31.395,36.559,39.497,-77.308689,42.989522
Fayette,town,3636,3643,3929,54.782,54.888,59.197,0.105,4.309,4.415,66.372,-76.849609,42.846255
Fenner,town,1694,1680,1726,54.483,54.033,55.512,-0.450,1.479,1.029,31.092,-75.777463,42.970954
Fenton,town,7236,6909,6674,217.593,207.760,200.693,-9.833,-7.067,-16.900,33.255,-75.80115,42.201186
Fine,town,1813,1622,1512,10.708,9.580,8.930,-1.128,-0.650,-1.778,169.308,-75.073522,44.162247
Fishkill,town,17655,20258,22107,550.881,632.101,689.794,81.220,57.693,138.914,32.049,-73.927454,41.512692
Fleming,town,2644,2647,2636,108.853,108.976,108.524,0.124,-0.453,-0.329,24.290,-76.577749,42.870055
Florence,town,852,1086,1025,15.522,19.785,18.673,4.263,-1.111,3.152,54.891,-75.743033,43.422737
Florida,town,2637,2731,2696,51.186,53.010,52.331,1.825,-0.679,1.145,51.518,-74.2112,42.89008
Floyd,town,3856,3869,3819,110.715,111.089,109.653,0.373,-1.436,-1.062,34.828,-75.329929,43.246211
Forestburgh,town,614,833,819,10.894,14.780,14.531,3.886,-0.248,3.637,56.361,-74.696586,41.546786
Forestport,town,1556,1692,1535,19.686,21.406,19.420,1.721,-1.986,-0.266,79.042,-75.154731,43.495595
Fort Ann,town,6368,6417,6190,58.417,58.867,56.784,0.450,-2.082,-1.633,109.009,-73.522783,43.468192
Fort Covington,town,1676,1645,1676,45.623,44.780,45.623,-0.844,0.844,0.000,36.736,-74.489669,44.950139
Fort Edward,town,6330,5892,6371,230.581,214.626,232.075,-15.955,17.448,1.493,27.452,-73.560064,43.229661
Fowler,town,1885,2180,2202,31.207,36.090,36.455,4.884,0.364,5.248,60.404,-75.413077,44.276435
Frankfort,town,7494,7478,7636,203.925,203.489,207.789,-0.435,4.299,3.864,36.749,-75.137809,43.038803
Franklin,town,1016,1197,1140,5.808,6.842,6.516,1.035,-0.326,0.709,174.941,-74.050616,44.527389
Franklin,town,2471,2621,2411,30.314,32.155,29.578,1.840,-2.576,-0.736,81.513,-75.111238,42.333521
Franklinville,town,2968,3128,2990,57.000,60.072,57.422,3.073,-2.650,0.423,52.071,-78.500069,42.305429
Freedom,town,2018,2493,2405,49.501,61.153,58.994,11.652,-2.159,9.493,40.767,-78.377221,42.478296
Freetown,town,688,789,757,26.808,30.743,29.496,3.935,-1.247,2.689,25.664,-76.018379,42.523098
Fremont,town,912,964,1008,28.214,29.823,31.184,1.609,1.361,2.970,32.325,-77.603328,42.399509
Fremont,town,1332,1391,1381,26.044,27.197,27.002,1.154,-0.196,0.958,51.145,-75.028225,41.859549
French Creek,town,916,935,906,25.147,25.669,24.873,0.522,-0.796,-0.275,36.426,-79.703375,42.04262
Friendship,town,2185,1927,2004,60.432,53.296,55.426,-7.136,2.130,-5.006,36.156,-78.132654,42.217006
Fulton,city,12929,11855,11896,2733.841,2506.743,2515.413,-227.098,8.669,-218.428,4.729,-76.416154,43.316832
Fulton,town,1514,1495,1442,23.723,23.425,22.595,-0.298,-0.830,-1.128,63.820,-74.442493,42.564924
Gaines,town,3025,3740,3378,87.714,108.446,97.949,20.732,-10.497,10.236,34.487,-78.206571,43.279269
Gainesville,town,2288,2333,2182,63.981,65.240,61.017,1.258,-4.223,-2.964,35.760,-78.132617,42.652143
Galen,town,4413,4439,4290,73.507,73.940,71.458,0.433,-2.482,-2.049,60.035,-76.88472,43.070476
Gallatin,town,1658,1499,1668,41.831,37.819,42.083,-4.011,4.264,0.252,39.636,-73.710308,42.051157
Galway,town,3266,3589,3545,72.489,79.658,78.681,7.169,-0.977,6.192,45.055,-74.030797,43.029396
Gardiner,town,4278,5238,5713,97.864,119.825,130.691,21.961,10.866,32.827,43.714,-74.18787,41.694664
Gates,town,28583,29275,28400,1865.884,1911.058,1853.938,45.173,-57.120,-11.946,15.319,-77.712892,43.151374
Geddes,town,17677,17740,17118,1514.019,1519.415,1466.141,5.396,-53.274,-47.878,11.676,-76.22493,43.076126
Genesee,town,1672,1803,1693,46.039,49.646,46.617,3.607,-3.029,0.578,36.317,-78.24977,42.042972
Genesee Falls,town,488,460,438,31.092,29.308,27.906,-1.784,-1.402,-3.186,15.695,-78.060841,42.569992
Geneseo,town,9178,9654,10483,202.866,213.387,231.711,10.521,18.324,28.845,45.242,-77.778243,42.803824
Geneva,city,14143,13617,13261,2417.263,2327.361,2266.515,-89.902,-60.846,-150.748,5.851,-76.982695,42.864494
Geneva,town,2967,3289,3291,155.569,172.453,172.558,16.883,0.105,16.988,19.072,-76.999426,42.830946
Genoa,town,1868,1914,1935,43.284,44.350,44.837,1.066,0.487,1.552,43.157,-76.567936,42.65332
Georgetown,town,932,946,974,23.255,23.604,24.303,0.349,0.699,1.048,40.077,-75.747261,42.779079
German,town,311,378,370,10.926,13.280,12.999,2.354,-0.281,2.073,28.464,-75.828031,42.497007
German Flatts,town,14345,13629,13258,419.503,398.564,387.715,-20.939,-10.849,-31.788,34.195,-74.980335,42.986903
Germantown,town,2010,2018,1954,144.628,145.204,140.599,0.576,-4.605,-4.029,13.898,-73.873546,42.134005
Gerry,town,2147,2054,1905,59.275,56.707,52.594,-2.568,-4.114,-6.681,36.221,-79.237146,42.217107
Ghent,town,4812,5276,5402,106.071,116.299,119.076,10.228,2.777,13.005,45.366,-73.650882,42.311896
Gilboa,town,1207,1215,1307,20.292,20.427,21.973,0.134,1.547,1.681,59.481,-74.455101,42.430427
Glen,town,1950,2222,2507,49.645,56.570,63.825,6.925,7.256,14.181,39.279,-74.351506,42.902244
Glen Cove,city,24149,26622,26964,3498.176,3856.410,3905.952,358.234,49.541,407.775,6.903,-73.62847,40.870869
Glens Falls,city,15023,14354,14700,3738.960,3572.458,3658.571,-166.502,86.113,-80.389,4.018,-73.646,43.310667
Glenville,town,28771,28183,29480,567.522,555.924,581.508,-11.599,25.584,13.985,50.696,-73.99245,42.886904
Gloversville,city,16656,15413,15665,3312.903,3065.669,3115.792,-247.235,50.123,-197.111,5.028,-74.346637,43.049142
Gorham,town,3497,3776,4247,65.805,71.055,79.919,5.250,8.863,14.113,53.142,-77.204375,42.806029
Goshen,town,11500,12913,13687,261.161,293.250,310.827,32.089,17.577,49.666,44.034,-74.34949,41.381761
Gouverneur,town,6985,7418,7085,96.650,102.641,98.034,5.991,-4.608,1.384,72.271,-75.483926,44.367092
Grafton,town,1917,1987,2130,41.656,43.177,46.285,1.521,3.107,4.628,46.019,-73.456,42.768492
Granby,town,7013,7009,6821,150.737,150.651,146.610,-0.086,-4.041,-4.127,46.525,-76.440771,43.291838
Grand Island,town,17561,18621,20374,526.362,558.133,610.677,31.772,52.543,84.315,33.363,-78.962107,43.019656
Granger,town,515,577,538,16.054,17.986,16.771,1.933,-1.216,0.717,32.080,-78.010611,42.47478
Granville,town,5935,6456,6669,105.771,115.057,118.853,9.285,3.796,13.081,56.112,-73.308624,43.418753
Great Valley,town,2090,2145,1974,38.571,39.586,36.431,1.015,-3.156,-2.141,54.185,-78.638095,42.192791
Greece,town,90106,94141,96095,1815.859,1897.174,1936.552,81.315,39.378,120.693,49.622,-77.698716,43.245852
Green Island,town,2490,2278,2620,2675.529,2447.733,2815.215,-227.796,367.482,139.686,0.931,-73.692357,42.74749
Greenburgh,town,83816,86764,88400,2330.330,2412.293,2457.779,81.963,45.486,127.449,35.967,-73.841068,41.033011
Greene,town,6053,5729,5604,80.083,75.796,74.143,-4.287,-1.654,-5.940,75.584,-75.769147,42.318755
Greenfield,town,6338,7362,7775,93.059,108.094,114.158,15.035,6.064,21.099,68.108,-73.876668,43.13781
Greenport,town,4101,4180,4165,200.437,204.298,203.565,3.861,-0.733,3.128,20.460,-73.793615,42.22757
Greenville,town,3135,3316,3739,80.032,84.652,95.451,4.621,10.799,15.419,39.172,-74.009518,42.393772
Greenville,town,3120,3800,4616,103.368,125.897,152.932,22.529,27.035,49.564,30.183,-74.594113,41.373749
Greenwich,town,4557,4896,4942,102.966,110.625,111.665,7.660,1.039,8.699,44.257,-73.477889,43.140483
Greenwood,town,898,849,801,21.699,20.515,19.355,-1.184,-1.160,-2.344,41.384,-77.679022,42.145519
Greig,town,1323,1365,1199,13.975,14.419,12.666,0.444,-1.754,-1.310,94.667,-75.246141,43.703878
Groton,town,5483,5794,5950,110.890,117.180,120.335,6.290,3.155,9.445,49.445,-76.359875,42.584687
Grove,town,479,533,548,14.180,15.778,16.222,1.599,0.444,2.043,33.781,-77.897906,42.476509
Groveland,town,3190,3853,3249,79.805,96.391,81.281,16.586,-15.110,1.476,39.973,-77.7793,42.706719
Guilderland,town,28764,32688,35303,489.556,556.342,600.849,66.786,44.507,111.292,58.755,-73.963042,42.707943
Guilford,town,2875,3046,2922,46.471,49.235,47.230,2.764,-2.004,0.760,61.867,-75.45719,42.401363
Hadley,town,1628,1971,2048,39.633,47.983,49.858,8.350,1.875,10.225,41.077,-73.903845,43.335957
Hague,town,699,854,699,8.852,10.815,8.852,1.963,-1.963,0.000,78.968,-73.548182,43.728554
Halcott,town,189,193,258,8.422,8.600,11.497,0.178,2.896,3.075,22.441,-74.47701,42.219407
Halfmoon,town,13879,18474,21535,412.228,548.706,639.623,136.479,90.916,227.395,33.668,-73.727672,42.8639
Hamburg,town,53735,56259,56936,1298.745,1359.748,1376.111,61.004,16.363,77.366,41.375,-78.858106,42.739413
Hamden,town,1144,1280,1323,19.107,21.379,22.097,2.271,0.718,2.990,59.873,-74.984626,42.200446
Hamilton,town,6221,5733,6690,150.333,138.540,161.666,-11.793,23.126,11.334,41.382,-75.493932,42.789718
Hamlin,town,9203,9355,9045,212.014,215.516,208.374,3.502,-7.142,-3.640,43.407,-77.913461,43.321221
Hammond,town,1168,1207,1191,14.995,15.495,15.290,0.501,-0.205,0.295,77.895,-75.739935,44.43526
Hampton,town,756,871,938,33.471,38.563,41.529,5.092,2.966,8.058,22.587,-73.286401,43.546567
Hamptonburgh,town,3910,4686,5561,146.609,175.706,208.514,29.097,32.809,61.906,26.670,-74.253929,41.448729
Hancock,town,3384,3449,3224,20.940,21.342,19.950,0.402,-1.392,-0.990,161.607,-75.163237,41.957256
Hannibal,town,4616,4957,4854,103.162,110.783,108.481,7.621,-2.302,5.319,44.745,-76.551634,43.30951
Hanover,town,7380,7638,7127,140.944,145.871,136.112,4.927,-9.759,-4.832,52.361,-79.123076,42.494778
Hardenburgh,town,204,208,238,2.522,2.572,2.942,0.049,0.371,0.420,80.884,-74.613255,42.043768
Harford,town,886,920,943,36.638,38.044,38.995,1.406,0.951,2.357,24.182,-76.207173,42.444275
Harmony,town,2177,2339,2206,48.027,51.601,48.667,3.574,-2.934,0.640,45.329,-79.454768,42.042058
Harpersfield,town,1450,1603,1577,34.301,37.920,37.305,3.619,-0.615,3.004,42.273,-74.699753,42.451731
Harrietstown,town,5621,5575,5709,26.311,26.096,26.723,-0.215,0.627,0.412,213.633,-74.236313,44.242991
Harrisburg,town,425,423,437,10.702,10.652,11.004,-0.050,0.353,0.302,39.712,-75.650766,43.827175
Harrison,town,23308,24154,27472,1344.442,1393.240,1584.628,48.799,191.387,240.186,17.337,-73.719261,41.023383
Hartford,town,1989,2279,2269,45.792,52.468,52.238,6.677,-0.230,6.446,43.436,-73.419045,43.359213
Hartland,town,3911,4165,4117,74.710,79.562,78.645,4.852,-0.917,3.935,52.349,-78.549447,43.26026
Hartsville,town,546,585,609,15.067,16.143,16.805,1.076,0.662,1.738,36.238,-77.681982,42.235274
Hartwick,town,2045,2203,2110,50.609,54.519,52.217,3.910,-2.302,1.609,40.408,-75.015412,42.646271
Hastings,town,8113,8803,9450,176.485,191.495,205.570,15.010,14.074,29.084,45.970,-76.158132,43.321508
Haverstraw,town,32712,33811,36634,1194.595,1234.728,1337.820,40.134,103.092,143.226,27.383,-74.038647,41.20545
Hebron,town,1540,1773,1853,27.314,31.447,32.866,4.133,1.419,5.551,56.381,-73.323938,43.281695
Hector,town,4423,4854,4940,39.321,43.152,43.917,3.832,0.765,4.596,112.486,-76.792988,42.46613
Hempstead,town,725639,755924,759757,3732.417,3888.191,3907.907,155.775,19.716,175.490,194.415,-73.609265,40.63341
Henderson,town,1268,1377,1360,18.649,20.252,20.002,1.603,-0.250,1.353,67.994,-76.208671,43.855584
Henrietta,town,36376,39028,42581,1024.343,1099.023,1199.075,74.680,100.052,174.732,35.512,-77.641262,43.055585
Herkimer,town,10401,9962,10175,321.259,307.700,314.279,-13.560,6.579,-6.981,32.376,-74.989798,43.061517
Hermon,town,1041,1069,1108,19.204,19.720,20.440,0.517,0.719,1.236,54.208,-75.288507,44.399
Highland,town,2147,2404,2530,42.206,47.258,49.735,5.052,2.477,7.529,50.869,-74.888779,41.538218
Highlands,town,13667,12484,12492,408.859,373.469,373.708,-35.390,0.239,-35.151,33.427,-74.008647,41.36019
Hillsdale,town,1793,1744,1927,37.409,36.387,40.205,-1.022,3.818,2.796,47.930,-73.532437,42.224426
Hinsdale,town,2095,2270,2168,53.887,58.389,55.765,4.501,-2.624,1.878,38.877,-78.381013,42.166606
Holland,town,3572,3603,3401,99.688,100.553,94.916,0.865,-5.637,-4.772,35.832,-78.521571,42.649454
Homer,town,6508,6363,6405,128.899,126.027,126.859,-2.872,0.832,-2.040,50.489,-76.16974,42.666068
Hoosick,town,6696,6759,6924,106.308,107.308,109.928,1.000,2.620,3.620,62.987,-73.356158,42.890369
Hope,town,358,392,403,8.603,9.420,9.685,0.817,0.264,1.081,41.612,-74.208803,43.30791
Hopewell,town,3016,3346,3747,84.456,93.697,104.926,9.241,11.229,20.470,35.711,-77.188473,42.900184
Hopkinton,town,957,1020,1077,5.139,5.477,5.783,0.338,0.306,0.644,186.220,-74.662202,44.540894
Horicon,town,1269,1479,1389,17.684,20.610,19.356,2.926,-1.254,1.672,71.762,-73.714211,43.711222
Hornby,town,1655,1742,1706,40.479,42.607,41.726,2.128,-0.881,1.247,40.886,-77.033004,42.23288
Hornell,city,9877,9019,8563,3573.747,3263.301,3098.309,-310.446,-164.992,-475.438,2.764,-77.660305,42.325529
Hornellsville,town,4149,4042,4151,94.928,92.480,94.974,-2.448,2.494,0.046,43.707,-77.677946,42.334753
Horseheads,town,19926,19561,19485,554.937,544.772,542.655,-10.165,-2.117,-12.282,35.907,-76.793904,42.162638
Hounsfield,town,3089,3323,3466,26.966,29.009,30.257,2.043,1.248,3.291,114.552,-76.207252,43.92505
Howard,town,1331,1430,1467,21.901,23.530,24.139,1.629,0.609,2.238,60.773,-77.519289,42.334655
Hudson,city,8034,7524,6713,3502.006,3279.698,2926.184,-222.308,-353.513,-575.821,2.294,-73.785809,42.25148
Hume,town,1970,1987,2071,51.279,51.721,53.908,0.443,2.187,2.629,38.417,-78.12683,42.480472
Humphrey,town,580,721,687,15.876,19.736,18.805,3.860,-0.931,2.929,36.533,-78.522363,42.21786
Hunter,town,2116,2721,2732,23.468,30.178,30.300,6.710,0.122,6.832,90.164,-74.151624,42.164732
Huntington,town,191474,195289,203264,1442.128,1470.861,1530.927,28.733,60.065,88.799,132.772,-73.378572,40.880504
Hurley,town,6741,6564,6314,186.803,181.898,174.970,-4.905,-6.928,-11.833,36.086,-74.115497,41.962204
Huron,town,2025,2117,2118,47.055,49.193,49.216,2.138,0.023,2.161,43.035,-76.89289,43.243754
Hyde Park,town,21230,20851,21571,533.771,524.242,542.345,-9.529,18.102,8.574,39.774,-73.905915,41.801112
Independence,town,1026,1074,1167,29.726,31.116,33.811,1.391,2.694,4.085,34.516,-77.794111,42.051361
Indian Lake,town,1481,1471,1352,5.572,5.535,5.087,-0.038,-0.448,-0.485,265.775,-74.321827,43.787397
Inlet,town,343,406,333,5.154,6.101,5.004,0.947,-1.097,-0.150,66.550,-74.737498,43.728665
Ira,town,1990,2426,2206,57.107,69.618,63.305,12.512,-6.313,6.199,34.847,-76.539282,43.21348
Irondequoit,town,52377,52354,51692,3221.769,3220.354,3179.634,-1.415,-40.720,-42.135,16.257,-77.570908,43.209658
Ischua,town,847,895,859,25.796,27.258,26.161,1.462,-1.096,0.365,32.835,-78.392288,42.230571
Islip,town,299587,322612,335543,1877.686,2021.997,2103.043,144.311,81.046,225.357,159.551,-73.190639,40.718611
Italy,town,1120,1087,1141,27.823,27.004,28.345,-0.820,1.341,0.522,40.254,-77.305035,42.622585
Ithaca,city,29541,29287,30014,4866.689,4824.844,4944.612,-41.845,119.769,77.924,6.070,-76.503126,42.444056
Ithaca,town,17797,18198,19930,588.181,601.434,658.675,13.253,57.242,70.494,30.258,-76.511637,42.435462
Jackson,town,1581,1718,1800,40.802,44.338,46.454,3.536,2.116,5.652,38.748,-73.375679,43.086948
Jamestown,city,34681,31730,31146,3876.298,3546.464,3481.191,-329.833,-65.274,-395.107,8.947,-79.236243,42.097668
Jasper,town,1232,1270,1424,23.374,24.094,27.016,0.721,2.922,3.643,52.709,-77.532811,42.141393
Java,town,2197,2222,2057,46.406,46.934,43.449,0.528,-3.485,-2.957,47.343,-78.385909,42.650739
Jay,town,2244,2306,2506,32.182,33.071,35.940,0.889,2.868,3.757,69.728,-73.700199,44.368752
Jefferson,town,1190,1285,1410,27.435,29.626,32.507,2.190,2.882,5.072,43.375,-74.612794,42.489624
Jerusalem,town,3784,4525,4469,57.838,69.165,68.309,11.326,-0.856,10.470,65.424,-77.154799,42.609019
Jewett,town,933,970,953,18.599,19.337,18.998,0.738,-0.339,0.399,50.163,-74.220825,42.247229
Johnsburg,town,2352,2450,2395,11.373,11.847,11.581,0.474,-0.266,0.208,206.797,-74.05308,43.63024
Johnstown,city,9058,8511,8743,1887.309,1773.337,1821.676,-113.972,48.339,-65.633,4.799,-74.375534,43.007347
Johnstown,town,6418,7166,7098,89.904,100.382,99.429,10.478,-0.953,9.525,71.388,-74.395815,43.045677
Junius,town,1354,1362,1471,50.358,50.656,54.710,0.298,4.054,4.352,26.887,-76.909574,42.979888
Keene,town,908,1063,1105,5.820,6.813,7.082,0.993,0.269,1.263,156.022,-73.811976,44.180403
Kendall,town,2769,2838,2724,84.106,86.202,82.739,2.096,-3.463,-1.367,32.923,-78.054593,43.33119
Kent,town,13183,14009,13507,308.683,328.024,316.270,19.341,-11.754,7.587,42.707,-73.731051,41.473484
Kiantone,town,1322,1385,1350,71.484,74.891,72.998,3.407,-1.893,1.514,18.494,-79.199727,42.034169
Kinderhook,town,8112,8296,8498,250.000,255.671,261.896,5.671,6.225,11.896,32.448,-73.682253,42.411442
Kingsbury,town,11851,11171,12671,296.167,279.173,316.659,-16.994,37.486,20.492,40.015,-73.539539,43.344045
Kingston,city,23095,23456,23893,2626.683,2667.741,2717.442,41.058,49.702,90.760,8.792,-73.996461,41.929708
Kingston,town,864,908,889,117.286,123.259,120.679,5.973,-2.579,3.394,7.367,-74.047358,41.98529
Kirkland,town,10153,10138,10315,301.155,300.710,305.960,-0.445,5.250,4.805,33.714,-75.386489,43.036861
Kirkwood,town,6096,5651,5857,195.263,181.009,187.608,-14.254,6.598,-7.655,31.219,-75.803161,42.088909
Knox,town,2661,2647,2692,63.466,63.132,64.205,-0.334,1.073,0.739,41.928,-74.110617,42.682206
Kortright,town,1410,1633,1675,22.556,26.123,26.795,3.567,0.672,4.239,62.512,-74.782501,42.391447
La Fayette,town,5105,4833,4952,115.078,108.946,111.629,-6.131,2.683,-3.449,44.361,-76.108637,42.908034
La Grange,town,13274,14928,15730,329.508,370.566,390.475,41.058,19.909,60.967,40.284,-73.802747,41.67869
Lackawanna,city,20585,19064,18141,3124.451,2893.589,2753.494,-230.862,-140.096,-370.957,6.588,-78.832394,42.818314
Lake George,town,3211,3578,3515,94.670,105.491,103.633,10.820,-1.857,8.963,33.918,-73.721993,43.439007
Lake Luzerne,town,2816,3219,3347,52.164,59.629,62.000,7.465,2.371,9.836,53.984,-73.802727,43.326299
Lake Pleasant,town,887,876,781,4.487,4.431,3.951,-0.056,-0.481,-0.536,197.691,-74.426425,43.569027
Lancaster,town,32181,39019,41604,847.048,1027.033,1095.074,179.985,68.041,248.026,37.992,-78.63781,42.909928
Lansing,town,9296,10521,11033,132.898,150.411,157.731,17.513,7.320,24.833,69.948,-76.531568,42.566698
Lapeer,town,613,686,767,24.441,27.351,30.581,2.911,3.229,6.140,25.081,-76.109236,42.446675
Laurens,town,2349,2402,2424,54.720,55.955,56.468,1.235,0.512,1.747,42.927,-75.117132,42.53734
Lawrence,town,1516,1545,1826,31.843,32.452,38.355,0.609,5.902,6.511,47.608,-74.676742,44.758645
Le Ray,town,17973,19836,21782,242.847,268.020,294.314,25.172,26.294,51.466,74.009,-75.797747,44.077158
Le Roy,town,8176,7790,7641,194.043,184.882,181.345,-9.161,-3.536,-12.697,42.135,-77.972153,42.993683
Lebanon,town,1265,1329,1332,28.937,30.401,30.469,1.464,0.069,1.533,43.716,-75.621747,42.784254
Ledyard,town,1737,1832,1886,35.723,37.677,38.787,1.954,1.111,3.064,48.624,-76.677409,42.747016
Lee,town,7115,6875,6486,156.353,151.079,142.530,-5.274,-8.548,-13.822,45.506,-75.517532,43.325687
Leicester,town,2223,2287,2200,66.404,68.315,65.717,1.912,-2.599,-0.687,33.477,-77.908861,42.762568
Lenox,town,8621,8665,9122,237.983,239.197,251.813,1.215,12.615,13.830,36.225,-75.758209,43.111299
Leon,town,1245,1380,1365,34.456,38.192,37.777,3.736,-0.415,3.321,36.133,-79.00205,42.304024
Lewis,town,1057,1200,1382,12.564,14.264,16.427,1.700,2.163,3.863,84.128,-73.571623,44.30135
Lewis,town,858,857,854,13.190,13.175,13.129,-0.015,-0.046,-0.061,65.047,-75.561138,43.479283
Lewisboro,town,11313,12324,12411,386.121,420.628,423.597,34.506,2.969,37.476,29.299,-73.582799,41.269544
Lewiston,town,15453,16257,16262,306.010,321.931,322.030,15.921,0.099,16.020,50.498,-78.967443,43.176491
Lexington,town,835,830,805,10.424,10.362,10.050,-0.062,-0.312,-0.375,80.101,-74.358827,42.20053
Leyden,town,1796,1792,1785,53.571,53.451,53.243,-0.119,-0.209,-0.328,33.526,-75.378919,43.533971
Liberty,town,9825,9632,9885,121.789,119.396,122.533,-2.392,3.136,0.744,80.672,-74.777478,41.813179
Lima,town,4187,4541,4305,131.053,142.134,134.747,11.080,-7.387,3.693,31.949,-77.610051,42.893708
Lincklaen,town,486,416,396,18.514,15.848,15.086,-2.667,-0.762,-3.429,26.250,-75.842959,42.682696
Lincoln,town,1669,1818,2012,66.763,72.724,80.484,5.960,7.760,13.721,24.999,-75.733081,43.032507
Lindley,town,1862,1913,1967,49.332,50.683,52.113,1.351,1.431,2.782,37.745,-77.141849,42.045207
Lisbon,town,3746,4047,4102,32.909,35.554,36.037,2.644,0.483,3.128,113.828,-75.318752,44.710639
Lisle,town,2486,2707,2751,52.501,57.169,58.098,4.667,0.929,5.596,47.351,-76.053919,42.362158
Litchfield,town,1414,1453,1513,47.359,48.665,50.674,1.306,2.010,3.316,29.857,-75.154378,42.973303
Little Falls,city,5829,5188,4946,1487.930,1324.307,1262.533,-163.624,-61.774,-225.398,3.918,-74.856365,43.045011
Little Falls,town,1635,1544,1587,73.740,69.636,71.575,-4.104,1.939,-2.165,22.172,-74.890704,43.021826
Little Valley,town,1881,1788,1740,63.247,60.120,58.506,-3.127,-1.614,-4.741,29.741,-78.761625,42.226677
Livingston,town,3582,3424,3646,92.007,87.948,93.651,-4.058,5.702,1.644,38.932,-73.79547,42.140447
Livonia,town,6804,7286,7809,165.835,177.583,190.330,11.748,12.747,24.495,41.029,-77.65222,42.809085
Lloyd,town,9231,9941,10863,276.306,297.558,325.156,21.252,27.598,48.850,33.409,-73.996044,41.728877
Locke,town,1917,1900,1951,78.434,77.738,79.825,-0.696,2.087,1.391,24.441,-76.413453,42.656828
Lockport,city,24426,22279,21165,2845.284,2595.189,2465.423,-250.095,-129.765,-379.860,8.585,-78.696825,43.169928
Lockport,town,16596,19653,20529,369.640,437.728,457.239,68.088,19.511,87.599,44.898,-78.676941,43.15792
Lodi,town,1429,1476,1550,35.952,37.135,38.997,1.182,1.862,3.044,39.747,-76.829198,42.585981
Long Beach,city,33510,35462,33275,12601.425,13335.474,12513.054,734.049,-822.421,-88.372,2.659,-73.66584,40.58865
Long Lake,town,930,852,711,2.069,1.895,1.581,-0.173,-0.314,-0.487,449.580,-74.586313,43.971806
Lorraine,town,766,930,1037,19.646,23.852,26.596,4.206,2.744,6.950,38.991,-75.96834,43.749727
Louisville,town,3040,3195,3145,47.634,50.063,49.279,2.429,-0.783,1.645,63.820,-75.013851,44.906572
Lowville,town,4849,4548,4982,127.309,119.407,130.801,-7.903,11.395,3.492,38.088,-75.52375,43.816229
Lumberland,town,1425,1939,2468,28.734,39.098,49.765,10.364,10.667,21.031,49.593,-74.811524,41.493996
Lyme,town,1701,2015,2185,16.928,20.053,21.745,3.125,1.692,4.817,100.482,-76.213752,44.041522
Lyndon,town,503,661,707,15.105,19.849,21.231,4.745,1.381,6.126,33.301,-78.362802,42.305155
Lyons,town,6315,5831,5682,168.126,155.241,151.274,-12.886,-3.967,-16.853,37.561,-76.999628,43.088066
Lyonsdale,town,1281,1273,1227,18.396,18.281,17.621,-0.115,-0.661,-0.775,69.634,-75.246599,43.606233
Lysander,town,16346,19285,21759,253.127,298.639,336.950,45.512,38.311,83.823,64.576,-76.374438,43.179914
Macedon,town,7375,8688,9148,190.172,224.030,235.891,33.857,11.862,45.719,38.781,-77.309551,43.079288
Machias,town,2338,2482,2375,56.826,60.326,57.725,3.500,-2.601,0.899,41.143,-78.523463,42.397664
Macomb,town,790,846,906,12.541,13.430,14.383,0.889,0.952,1.841,62.993,-75.565031,44.444072
Madison,town,2774,2801,3008,67.048,67.701,72.704,0.653,5.003,5.656,41.373,-75.501912,42.884453
Madrid,town,1568,1828,1735,30.003,34.978,33.199,4.975,-1.780,3.196,52.261,-75.127161,44.76919
Maine,town,5576,5459,5377,122.272,119.707,117.908,-2.566,-1.798,-4.364,45.603,-76.031597,42.200209
Malone,town,12982,14981,14545,126.588,146.080,141.829,19.492,-4.251,15.241,102.553,-74.285988,44.795688
Malta,town,11709,13005,14765,373.356,414.681,470.801,41.325,56.120,97.444,31.361,-73.787864,42.985337
Mamakating,town,9792,11002,12085,99.417,111.702,122.698,12.285,10.996,23.281,98.494,-74.495039,41.585977
Mamaroneck,town,27706,28967,29156,1126.720,1178.001,1185.687,51.281,7.686,58.967,24.590,-73.706281,40.93205
Manchester,town,9351,9258,9395,247.171,244.713,248.334,-2.458,3.621,1.163,37.832,-77.189691,42.992135
Manheim,town,3527,3171,3334,118.588,106.619,112.099,-11.970,5.481,-6.489,29.742,-74.801603,43.066161
Manlius,town,30656,31872,32370,614.357,638.726,648.706,24.369,9.980,34.349,49.899,-75.979273,43.048926
Mansfield,town,724,800,808,18.233,20.147,20.348,1.914,0.201,2.115,39.709,-78.761141,42.302882
Marathon,town,2019,2189,1967,80.549,87.332,78.475,6.782,-8.857,-2.075,25.065,-76.011859,42.448176
Marbletown,town,5285,5854,5607,96.107,106.454,101.962,10.347,-4.492,5.856,54.991,-74.162733,41.869858
Marcellus,town,6456,6319,6210,198.282,194.075,190.727,-4.208,-3.348,-7.555,32.560,-76.325432,42.953908
Marcy,town,8685,9469,8982,260.484,283.998,269.392,23.514,-14.606,8.908,33.342,-75.26631,43.17318
Marilla,town,5250,5709,5327,190.753,207.431,193.551,16.677,-13.880,2.798,27.522,-78.532203,42.82517
Marion,town,4901,4974,4746,167.853,170.353,162.544,2.500,-7.809,-5.309,29.198,-77.194111,43.163
Marlborough,town,7430,8263,8263,279.795,311.164,311.164,31.369,0.000,31.369,26.555,-73.990717,41.633647
Marshall,town,2125,2127,2131,64.711,64.771,64.893,0.061,0.122,0.183,32.839,-75.386221,42.967178
Martinsburg,town,1358,1249,1433,17.865,16.431,18.852,-1.434,2.421,0.987,76.014,-75.528547,43.729181
Maryland,town,1716,1920,1897,33.125,37.063,36.619,3.938,-0.444,3.494,51.804,-74.856468,42.543506
Masonville,town,1352,1405,1320,24.774,25.745,24.187,0.971,-1.558,-0.586,54.574,-75.345298,42.230903
Massena,town,13826,13121,12883,246.197,233.643,229.405,-12.554,-4.238,-16.792,56.158,-74.833979,44.960915
Mayfield,town,5738,6432,6495,88.810,99.552,100.527,10.741,0.975,11.717,64.610,-74.260057,43.1248
McDonough,town,809,870,886,20.426,21.967,22.371,1.540,0.404,1.944,39.605,-75.725816,42.50098
Mechanicville,city,5249,5019,5196,5525.455,5283.341,5469.664,-242.114,186.322,-55.791,0.950,-73.689161,42.903053
Mendon,town,6845,8370,9152,170.828,208.887,228.403,38.059,19.516,57.575,40.070,-77.547895,42.985811
Mentz,town,2453,2446,2378,142.811,142.404,138.445,-0.408,-3.959,-4.366,17.177,-76.63195,43.041423
Meredith,town,1513,1588,1529,25.955,27.241,26.229,1.287,-1.012,0.274,58.294,-74.943389,42.364785
Mexico,town,5050,5181,5197,109.021,111.850,112.195,2.828,0.345,3.173,46.321,-76.204971,43.454887
Middleburgh,town,3296,3515,3746,65.627,69.988,74.587,4.361,4.599,8.960,50.223,-74.321924,42.60764
Middlebury,town,1532,1508,1441,42.900,42.228,40.352,-0.672,-1.876,-2.548,35.711,-78.132294,42.826489
Middlefield,town,2231,2249,2114,33.967,34.241,32.185,0.274,-2.055,-1.781,65.682,-74.87002,42.703045
Middlesex,town,1249,1345,1495,36.593,39.406,43.800,2.813,4.395,7.207,34.132,-77.290905,42.713369
Middletown,city,24160,25388,28086,4690.652,4929.067,5452.883,238.416,523.815,762.231,5.151,-74.422687,41.445916
Middletown,town,3406,4051,3750,35.016,41.647,38.553,6.631,-3.095,3.537,97.269,-74.625493,42.160751
Milan,town,1895,4559,2370,51.863,124.772,64.863,72.909,-59.909,13.000,36.539,-73.775509,41.974599
Milford,town,2845,2938,3044,60.395,62.369,64.620,1.974,2.250,4.224,47.106,-74.977959,42.546299
Milo,town,7023,7026,7006,158.481,158.548,158.097,0.068,-0.451,-0.384,44.315,-77.002956,42.615046
Milton,town,14658,17103,18575,410.396,478.852,520.065,68.455,41.213,109.669,35.717,-73.899681,43.040642
Mina,town,1129,1176,1106,30.985,32.274,30.353,1.290,-1.921,-0.631,36.437,-79.703051,42.129855
Minden,town,4474,4202,4297,87.112,81.816,83.666,-5.296,1.850,-3.446,51.359,-74.697481,42.927062
Minerva,town,758,796,809,4.775,5.014,5.096,0.239,0.082,0.321,158.746,-74.058857,43.853807
Minetto,town,1822,1663,1659,301.964,275.612,274.949,-26.351,-0.663,-27.014,6.034,-76.48216,43.398623
Minisink,town,2981,3585,4490,129.065,155.216,194.399,26.151,39.183,65.334,23.097,-74.537732,41.332288
Mohawk,town,3976,3902,3844,112.341,110.250,108.611,-2.091,-1.639,-3.730,35.392,-74.396143,42.957202
Moira,town,2684,2857,2934,59.507,63.342,65.049,3.836,1.707,5.543,45.104,-74.558915,44.829531
Monroe,town,23035,31407,39912,1084.107,1478.122,1878.397,394.015,400.275,794.290,21.248,-74.192181,41.306815
Montague,town,47,108,78,0.719,1.651,1.193,0.933,-0.459,0.474,65.402,-75.709824,43.717937
Montezuma,town,1280,1431,1277,68.349,76.412,68.189,8.063,-8.223,-0.160,18.727,-76.694931,43.012236
Montgomery,town,18501,20891,22606,362.301,409.104,442.688,46.803,33.584,80.387,51.065,-74.207351,41.539811
Montour,town,2528,2446,2308,136.089,131.675,124.246,-4.414,-7.429,-11.843,18.576,-76.824063,42.337267
Mooers,town,2995,3404,3592,34.192,38.861,41.008,4.669,2.146,6.816,87.593,-73.660559,44.958985
Moravia,town,3871,4040,3626,130.352,136.043,122.102,5.691,-13.941,-8.250,29.697,-76.418778,42.737874
Moreau,town,13022,13826,14728,298.539,316.972,337.651,18.432,20.679,39.111,43.619,-73.666161,43.246769
Morehouse,town,106,151,86,0.545,0.777,0.442,0.231,-0.334,-0.103,194.452,-74.727196,43.471046
Moriah,town,4884,4879,4798,67.551,67.482,66.362,-0.069,-1.120,-1.189,72.301,-73.53013,44.055238
Morris,town,1787,1867,1878,45.880,47.934,48.216,2.054,0.282,2.336,38.950,-75.264247,42.53802
Morristown,town,2019,2050,1974,33.860,34.380,33.106,0.520,-1.275,-0.755,59.628,-75.63684,44.53675
Mount Hope,town,5971,6639,7018,233.713,259.859,274.694,26.146,14.835,40.981,25.548,-74.527928,41.460196
Mount Kisco,town,9108,9983,10877,2952.139,3235.749,3525.517,283.610,289.769,573.379,3.085,-73.728063,41.201866
Mount Morris,town,4633,4567,4465,91.171,89.872,87.865,-1.299,-2.007,-3.306,50.817,-77.899451,42.66635
Mount Pleasant,town,40590,43221,43724,1238.301,1318.567,1333.912,80.265,15.345,95.611,32.779,-73.811995,41.111957
Mount Vernon,city,67153,68381,67292,15272.056,15551.330,15303.667,279.274,-247.662,31.612,4.397,-73.829102,40.913615
Murray,town,4921,6259,4988,158.116,201.107,160.268,42.991,-40.838,2.153,31.123,-78.058384,43.254827
Nanticoke,town,1846,1790,1672,76.660,74.334,69.434,-2.326,-4.900,-7.226,24.080,-76.028025,42.281801
Naples,town,2559,2441,2502,64.489,61.516,63.053,-2.974,1.537,-1.436,39.681,-77.428484,42.62233
Napoli,town,1102,1159,1248,30.042,31.596,34.022,1.554,2.426,3.980,36.682,-78.884547,42.216442
Nassau,town,4989,4818,4789,109.973,106.204,105.565,-3.769,-0.639,-4.409,45.366,-73.546694,42.543276
Nelson,town,1892,1964,1980,42.944,44.578,44.942,1.634,0.363,1.997,44.057,-75.754236,42.87908
Neversink,town,2951,3553,3557,34.250,41.237,41.283,6.987,0.046,7.033,86.161,-74.591037,41.872025
New Albion,town,1978,2068,1972,54.534,57.015,54.369,2.481,-2.647,-0.165,36.271,-78.884323,42.303678
New Baltimore,town,3371,3417,3370,78.317,79.386,78.294,1.069,-1.092,-0.023,43.043,-73.858661,42.419047
New Berlin,town,3046,2803,2682,65.482,60.258,57.657,-5.224,-2.601,-7.825,46.516,-75.394791,42.584639
New Bremen,town,2526,2722,2706,45.294,48.808,48.521,3.514,-0.287,3.228,55.769,-75.372708,43.858767
New Castle,town,16648,17491,17569,709.870,745.816,749.141,35.945,3.326,39.271,23.452,-73.77193,41.183868
New Hartford,town,21640,21172,22166,847.626,829.294,868.229,-18.331,38.934,20.603,25.530,-75.282073,43.058672
New Haven,town,2778,2930,2856,89.173,94.052,91.677,4.879,-2.375,2.504,31.153,-76.314973,43.471106
New Hudson,town,715,736,781,19.635,20.212,21.447,0.577,1.236,1.812,36.415,-78.250598,42.304772
New Lebanon,town,2379,2454,2305,66.234,68.322,64.174,2.088,-4.148,-2.060,35.918,-73.438378,42.469074
New Lisbon,town,996,1116,1114,22.266,24.948,24.904,2.683,-0.045,2.638,44.732,-75.140215,42.623144
New Paltz,town,11388,12830,14003,329.264,370.957,404.872,41.693,33.915,75.608,34.586,-74.088634,41.757453
New Rochelle,city,67265,72182,77062,4911.294,5270.304,5626.613,359.010,356.309,715.319,13.696,-73.778673,40.921535
New Scotland,town,9139,8626,8648,156.384,147.606,147.982,-8.778,0.376,-8.402,58.439,-73.940588,42.604931
New Windsor,town,22937,22866,25244,624.081,622.149,686.851,-1.932,64.702,62.770,36.753,-74.108912,41.474325
New York,city,7322564,8008278,8175133,15591.698,17051.766,17407.045,1460.069,355.279,1815.347,469.645,-73.938997,40.663383
Newark Valley,town,4189,4097,3946,83.256,81.428,78.426,-1.828,-3.001,-4.830,50.315,-76.163108,42.23022
Newburgh,city,26454,28259,28866,6907.896,7379.233,7537.738,471.337,158.505,629.842,3.830,-74.025039,41.50433
Newburgh,town,24058,27568,29801,501.381,574.531,621.068,73.150,46.537,119.687,47.984,-74.058784,41.552
Newcomb,town,544,481,436,2.346,2.074,1.880,-0.272,-0.194,-0.466,231.885,-74.125605,44.017762
Newfane,town,8996,9657,9666,172.548,185.226,185.399,12.678,0.173,12.851,52.136,-78.692996,43.281645
Newfield,town,4867,5108,5179,82.621,86.712,87.918,4.091,1.205,5.296,58.907,-76.613011,42.337658
Newport,town,2148,2192,2302,66.387,67.746,71.146,1.360,3.400,4.760,32.356,-75.036255,43.177909
Newstead,town,7440,8404,8594,140.418,158.611,162.197,18.194,3.586,21.780,52.985,-78.52075,43.021504
Niagara,town,9880,8978,8378,1056.522,960.066,895.905,-96.456,-64.161,-160.617,9.351,-78.981152,43.115537
Niagara Falls,city,61840,55593,50193,3666.472,3296.090,2975.925,-370.382,-320.164,-690.547,16.866,-79.014872,43.09216
Nichols,town,2525,2584,2525,72.579,74.275,72.579,1.696,-1.696,0.000,34.790,-76.349383,42.029658
Niles,town,1194,1208,1194,27.575,27.898,27.575,0.323,-0.323,0.000,43.300,-76.405896,42.812742
Niskayuna,town,19048,20295,21781,1261.919,1344.532,1442.979,82.613,98.447,181.060,15.094,-73.872919,42.803091
Norfolk,town,4258,4565,4668,73.785,79.105,80.890,5.320,1.785,7.105,57.708,-74.946789,44.832013
North Castle,town,10061,10849,11841,384.935,415.084,453.038,30.149,37.954,68.103,26.137,-73.694681,41.133112
North Collins,town,3502,3376,3523,81.193,78.272,81.680,-2.921,3.408,0.487,43.132,-78.863793,42.570842
North Dansville,town,5783,5738,5538,588.447,583.868,563.517,-4.579,-20.351,-24.930,9.828,-77.69146,42.558341
North Elba,town,7870,8661,8957,50.354,55.414,57.308,5.061,1.894,6.955,156.295,-73.996846,44.239567
North Greenbush,town,10891,10805,12075,573.489,568.961,635.835,-4.529,66.875,62.346,18.991,-73.663507,42.670566
North Harmony,town,2301,2521,2267,50.926,55.796,50.174,4.869,-5.622,-0.752,45.183,-79.453196,42.126699
North Hempstead,town,211393,222611,226322,2928.046,3083.429,3134.831,155.383,51.402,206.785,72.196,-73.680184,40.806721
North Hudson,town,266,266,240,1.421,1.421,1.283,0.000,-0.139,-0.139,187.132,-73.798075,44.001472
North Norwich,town,1998,1966,1783,70.744,69.611,63.131,-1.133,-6.480,-7.613,28.243,-75.498576,42.605147
North Salem,town,4725,5173,5104,203.640,222.948,219.974,19.308,-2.974,16.334,23.203,-73.603613,41.333039
North Tonawanda,city,34989,33262,31568,3219.572,3060.659,2904.783,-158.913,-155.876,-314.789,10.868,-78.865963,43.045596
Northampton,town,2705,2760,2670,78.033,79.619,77.023,1.587,-2.596,-1.010,34.665,-74.17471,43.193318
Northeast,town,2918,3002,3031,66.892,68.818,69.483,1.926,0.665,2.590,43.622,-73.54192,41.944501
Northumberland,town,3645,4603,5087,110.573,139.635,154.317,29.062,14.682,43.744,32.965,-73.630512,43.161989
Norway,town,663,711,762,18.555,19.899,21.326,1.343,1.427,2.771,35.731,-74.944714,43.221947
Norwich,city,7613,7355,7190,3685.698,3560.791,3480.910,-124.906,-79.882,-204.788,2.066,-75.52285,42.533584
Norwich,town,4084,3836,3998,97.063,91.168,95.019,-5.894,3.850,-2.044,42.076,-75.488094,42.508591
Nunda,town,2931,3017,3064,78.942,81.259,82.524,2.316,1.266,3.582,37.128,-77.897907,42.564291
Oakfield,town,3312,3203,3250,137.971,133.431,135.389,-4.541,1.958,-2.583,24.005,-78.271622,43.087243
Ogden,town,16912,18492,19856,460.171,503.162,540.276,42.991,37.114,80.105,36.752,-77.822031,43.164555
Ogdensburg,city,13521,12364,11128,1761.645,1610.900,1449.862,-150.745,-161.038,-311.783,7.675,-75.473245,44.708351
Ohio,town,880,922,1002,2.877,3.014,3.276,0.137,0.262,0.399,305.860,-74.921168,43.478183
Olean,city,16946,15347,14452,2745.526,2486.462,2341.458,-259.064,-145.004,-404.068,6.172,-78.432067,42.081771
Olean,town,1999,2029,1963,67.363,68.374,66.150,1.011,-2.224,-1.213,29.675,-78.423109,42.061682
Olive,town,4086,4579,4419,62.654,70.214,67.760,7.560,-2.453,5.106,65.215,-74.262961,41.947083
Oneida,city,10850,10987,11393,489.502,495.683,514.000,6.181,18.317,24.498,22.165,-75.662104,43.076987
Oneonta,city,13954,13292,13901,3222.337,3069.464,3210.098,-152.873,140.634,-12.239,4.330,-75.066587,42.455155
Oneonta,town,4963,4994,5229,148.291,149.217,156.239,0.926,7.022,7.948,33.468,-75.06593,42.465594
Onondaga,town,18396,21063,23101,295.766,338.645,371.412,42.879,32.766,75.646,62.198,-76.212697,42.967557
Ontario,town,8560,9778,10136,263.456,300.943,311.962,37.487,11.018,48.506,32.491,-77.313999,43.240715
Oppenheim,town,1848,1774,1924,32.801,31.487,34.150,-1.313,2.662,1.349,56.340,-74.683823,43.077349
Orange,town,1561,1752,1609,28.650,32.156,29.531,3.506,-2.625,0.881,54.485,-77.035049,42.33282
Orangetown,town,46742,47711,49212,1486.333,1517.146,1564.875,30.813,47.730,78.543,31.448,-73.947271,41.052654
Orangeville,town,1115,1301,1355,31.263,36.478,37.992,5.215,1.514,6.729,35.665,-78.248919,42.738831
Orchard Park,town,24632,27637,29054,638.132,715.982,752.692,77.849,36.710,114.559,38.600,-78.745546,42.75164
Orleans,town,2248,2465,2789,28.888,31.676,35.840,2.789,4.164,6.952,77.818,-75.960871,44.207978
Orwell,town,1171,1254,1167,28.419,30.433,28.322,2.014,-2.111,-0.097,41.205,-75.95313,43.56207
Osceola,town,239,265,229,2.741,3.039,2.626,0.298,-0.413,-0.115,87.210,-75.692107,43.562895
Ossian,town,797,751,789,20.064,18.906,19.863,-1.158,0.957,-0.201,39.723,-77.780974,42.520146
Ossining,town,34124,36534,37674,2196.358,2351.475,2424.850,155.117,73.375,228.492,15.537,-73.856022,41.155916
Oswegatchie,town,4036,4370,4397,56.660,61.349,61.728,4.689,0.379,5.068,71.231,-75.481475,44.629638
Oswego,city,19195,17954,18142,1695.897,1586.254,1602.864,-109.644,16.610,-93.034,11.318,-76.502978,43.458933
Oswego,town,8027,7287,7984,291.290,264.437,289.730,-26.854,25.293,-1.560,27.557,-76.555665,43.403803
Otego,town,3128,3183,3115,69.747,70.973,69.457,1.226,-1.516,-0.290,44.848,-75.187064,42.429392
Otisco,town,2255,2561,2541,72.467,82.301,81.658,9.834,-0.643,9.191,31.118,-76.222932,42.864829
Otsego,town,3932,3904,3900,68.441,67.954,67.884,-0.487,-0.070,-0.557,57.451,-74.978386,42.742986
Otselic,town,990,1001,1054,26.072,26.361,27.757,0.290,1.396,1.685,37.972,-75.740294,42.686191
Otto,town,777,831,808,24.054,25.726,25.014,1.672,-0.712,0.960,32.302,-78.839311,42.397307
Ovid,town,2306,2757,2311,59.458,71.087,59.587,11.629,-11.500,0.129,38.784,-76.789632,42.655994
Owasco,town,3490,3755,3793,148.745,160.040,161.659,11.294,1.620,12.914,23.463,-76.493991,42.888316
Owego,town,21279,20365,19883,201.577,192.919,188.353,-8.658,-4.566,-13.224,105.562,-76.190524,42.088068
Oxford,town,4075,3992,3901,67.440,66.066,64.560,-1.374,-1.506,-2.880,60.424,-75.591091,42.400193
Oyster Bay,town,292657,293925,293214,1716.829,1724.268,1720.097,7.439,-4.171,3.268,170.464,-73.520208,40.817622
Palatine,town,2787,3070,3240,66.716,73.491,77.560,6.775,4.070,10.844,41.774,-74.54983,42.945987
Palermo,town,3582,3686,3664,87.853,90.403,89.864,2.551,-0.540,2.011,40.773,-76.261684,43.363887
Palmyra,town,7690,7672,7975,228.460,227.925,236.927,-0.535,9.002,8.467,33.660,-77.191778,43.083383
Pamelia,town,2811,2897,3160,79.536,81.969,89.410,2.433,7.441,9.875,35.343,-75.903827,44.053486
Paris,town,4414,4609,4411,140.199,146.393,140.104,6.194,-6.289,-0.095,31.484,-75.266159,42.979835
Parish,town,2425,2694,2558,57.829,64.244,61.001,6.415,-3.243,3.172,41.934,-76.065501,43.410156
Parishville,town,1901,2049,2153,18.748,20.208,21.233,1.460,1.026,2.485,101.396,-74.819317,44.569176
Parma,town,13873,14822,15633,329.222,351.742,370.988,22.521,19.246,41.767,42.139,-77.796777,43.265119
Patterson,town,8679,11306,12023,265.633,346.036,367.981,80.403,21.945,102.348,32.673,-73.59212,41.484696
Pavilion,town,2327,2467,2495,65.070,68.984,69.767,3.915,0.783,4.698,35.762,-78.007413,42.905244
Pawling,town,5947,7521,8463,131.500,166.304,187.133,34.804,20.829,55.634,45.224,-73.597399,41.565922
Peekskill,city,19536,22441,23583,3569.129,4099.858,4308.496,530.729,208.638,739.367,5.474,-73.922353,41.288522
Pelham,town,11903,11866,12396,5386.921,5370.176,5610.037,-16.745,239.861,223.116,2.210,-73.806422,40.900109
Pembroke,town,4232,4530,4292,101.237,108.366,102.673,7.129,-5.693,1.435,41.803,-78.386758,42.994469
Pendleton,town,5010,6050,6397,182.680,220.601,233.254,37.922,12.653,50.574,27.425,-78.766343,43.101465
Penfield,town,30219,34645,36242,795.781,912.334,954.389,116.553,42.055,158.608,37.974,-77.448552,43.160272
Perinton,town,43015,46090,46462,1245.522,1334.560,1345.332,89.038,10.771,99.810,34.536,-77.428262,43.078172
Perry,town,5353,6654,4616,146.086,181.591,125.973,35.505,-55.618,-20.113,36.643,-78.014787,42.757422
Perrysburg,town,1838,1771,1626,53.160,51.223,47.029,-1.938,-4.194,-6.132,34.575,-79.011214,42.480428
Persia,town,2530,2512,2404,119.658,118.807,113.699,-0.851,-5.108,-5.959,21.144,-78.916016,42.39734
Perth,town,3377,3638,3646,129.250,139.239,139.546,9.989,0.306,10.296,26.128,-74.204712,43.003733
Peru,town,6254,6370,6998,67.628,68.882,75.673,1.254,6.791,8.045,92.477,-73.556098,44.582098
Petersburgh,town,1461,1563,1525,35.088,37.537,36.625,2.450,-0.913,1.537,41.639,-73.333475,42.771562
Pharsalia,town,735,542,593,18.780,13.849,15.152,-4.931,1.303,-3.628,39.137,-75.733613,42.59428
Phelps,town,6749,7017,7072,103.438,107.545,108.388,4.107,0.843,4.950,65.247,-77.048008,42.957515
Philadelphia,town,2136,2140,1947,56.765,56.871,51.742,0.106,-5.129,-5.023,37.629,-75.705611,44.146457
Philipstown,town,9242,9422,9662,178.076,181.544,186.169,3.468,4.624,8.093,51.899,-73.914926,41.418877
Piercefield,town,285,305,310,2.546,2.725,2.770,0.179,0.045,0.223,111.920,-74.602927,44.224678
Pierrepont,town,2375,2674,2589,38.906,43.804,42.411,4.898,-1.392,3.506,61.045,-75.013824,44.52764
Pike,town,1081,1086,1114,34.611,34.771,35.668,0.160,0.896,1.057,31.233,-78.139528,42.565207
Pinckney,town,323,319,329,7.855,7.758,8.001,-0.097,0.243,0.146,41.121,-75.780768,43.834254
Pine Plains,town,2287,2569,2473,73.504,82.567,79.482,9.063,-3.085,5.978,31.114,-73.651681,41.969358
Pitcairn,town,751,783,846,12.639,13.177,14.238,0.539,1.060,1.599,59.420,-75.277015,44.194821
Pitcher,town,751,848,803,26.372,29.778,28.198,3.406,-1.580,1.826,28.477,-75.835793,42.592126
Pittsfield,town,1116,1295,1366,29.622,34.373,36.257,4.751,1.885,6.636,37.675,-75.269806,42.613767
Pittsford,town,24497,27219,29405,1046.110,1162.349,1255.699,116.239,93.350,209.589,23.417,-77.526838,43.073292
Pittstown,town,5468,5644,5735,84.435,87.153,88.558,2.718,1.405,4.123,64.760,-73.505061,42.864706
Plainfield,town,850,986,915,28.837,33.451,31.043,4.614,-2.409,2.205,29.476,-75.194672,42.828399
Plattekill,town,8891,9892,10499,249.945,278.085,295.149,28.140,17.064,45.204,35.572,-74.071903,41.647989
Plattsburgh,city,21255,18816,19989,3208.441,2840.274,3017.338,-368.167,177.064,-191.103,6.625,-73.456362,44.694951
Plattsburgh,town,17231,11190,11870,252.305,163.849,173.806,-88.455,9.957,-78.498,68.294,-73.479411,44.69607
Pleasant Valley,town,8063,9066,9672,243.490,273.779,292.079,30.289,18.300,48.589,33.114,-73.804898,41.769698
Plymouth,town,1704,2049,1804,40.166,48.298,42.523,8.132,-5.775,2.357,42.424,-75.608782,42.600139
Poestenkill,town,3809,4054,4530,117.321,124.867,139.528,7.546,14.661,22.207,32.467,-73.526296,42.686414
Poland,town,2604,2467,2356,70.696,66.976,63.963,-3.719,-3.014,-6.733,36.834,-79.119187,42.130225
Pomfret,town,14224,14703,14965,321.269,332.087,338.005,10.819,5.918,16.737,44.274,-79.353449,42.402868
Pompey,town,5317,6159,7080,79.947,92.608,106.456,12.660,13.848,26.509,66.506,-75.98037,42.922903
Port Jervis,city,9060,8860,8828,3341.974,3268.199,3256.395,-73.774,-11.804,-85.578,2.711,-74.690504,41.378323
Portage,town,893,859,884,33.586,32.307,33.247,-1.279,0.940,-0.338,26.588,-77.997864,42.560913
Porter,town,7110,6920,6771,211.504,205.852,201.420,-5.652,-4.432,-10.084,33.616,-78.971845,43.251856
Portland,town,4832,5502,4827,141.031,160.586,140.885,19.555,-19.701,-0.146,34.262,-79.467036,42.366536
Portville,town,4397,3952,3730,121.771,109.447,103.299,-12.324,-6.148,-18.472,36.109,-78.347247,42.064741
Potsdam,town,16822,15957,16041,162.665,154.300,155.113,-8.364,0.812,-7.552,103.415,-75.039571,44.677423
Potter,town,1617,1830,1865,43.410,49.128,50.068,5.718,0.940,6.658,37.249,-77.180597,42.714086
Poughkeepsie,city,28844,29871,32736,5060.654,5240.840,5743.501,180.186,502.662,682.848,5.700,-73.921096,41.694894
Poughkeepsie,town,40143,42777,43341,1283.506,1367.724,1385.757,84.218,18.033,102.251,31.276,-73.907082,41.669815
Pound Ridge,town,4550,4726,5104,196.998,204.618,220.984,7.620,16.366,23.986,23.097,-73.574303,41.211069
Prattsburg,town,1894,2064,2085,36.618,39.905,40.311,3.287,0.406,3.693,51.723,-77.323359,42.532066
Prattsville,town,774,665,700,35.762,30.726,32.343,-5.036,1.617,-3.419,21.643,-74.414626,42.3221
Preble,town,1577,1582,1393,57.042,57.223,50.387,0.181,-6.836,-6.656,27.646,-76.131995,42.743063
Preston,town,1100,928,1044,31.401,26.491,29.803,-4.910,3.311,-1.599,35.030,-75.612972,42.506923
Princetown,town,2031,2132,2115,84.379,88.575,87.868,4.196,-0.706,3.490,24.070,-74.078059,42.811292
Providence,town,1360,1841,1995,30.196,40.875,44.294,10.679,3.419,14.099,45.040,-74.044427,43.116638
Pulteney,town,1417,1405,1285,38.870,38.541,35.249,-0.329,-3.292,-3.621,36.455,-77.195336,42.521178
Putnam,town,477,645,609,13.453,18.191,17.175,4.738,-1.015,3.723,35.458,-73.416158,43.750417
Putnam Valley,town,9094,10686,11809,211.915,249.013,275.182,37.098,26.169,63.267,42.913,-73.836312,41.398341
Queensbury,town,22630,25441,27901,333.211,374.602,410.823,41.390,36.222,77.612,67.915,-73.675512,43.361834
Ramapo,town,93861,108905,126595,1519.284,1762.794,2049.134,243.510,286.340,529.850,61.780,-74.107271,41.14039
Randolph,town,2613,2681,2602,71.990,73.864,71.687,1.873,-2.177,-0.303,36.297,-79.001028,42.12934
Rathbone,town,892,1080,1126,24.674,29.875,31.147,5.200,1.272,6.473,36.151,-77.335269,42.136588
Reading,town,1810,1786,1707,66.641,65.758,62.849,-0.884,-2.909,-3.792,27.160,-76.938518,42.419757
Red Hook,town,9565,10408,11319,241.305,262.573,285.555,21.267,22.983,44.250,39.639,-73.878511,42.018709
Red House,town,159,38,38,2.552,0.610,0.610,-1.942,0.000,-1.942,62.312,-78.763395,42.065087
Redfield,town,564,607,550,6.057,6.519,5.907,0.462,-0.612,-0.150,93.115,-75.828675,43.589025
Remsen,town,1739,1958,1929,47.126,53.061,52.275,5.935,-0.786,5.149,36.901,-75.145834,43.363053
Rensselaer,city,8255,7761,9392,2516.573,2365.975,2863.193,-150.598,497.218,346.619,3.280,-73.732648,42.647244
Rensselaerville,town,1990,1915,1843,32.141,30.930,29.767,-1.211,-1.163,-2.374,61.915,-74.174211,42.475157
Rhinebeck,town,7558,7762,7548,190.996,196.152,190.744,5.155,-5.408,-0.253,39.571,-73.897744,41.92764
Richfield,town,2711,2423,2388,83.750,74.853,73.772,-8.897,-1.081,-9.978,32.370,-75.049454,42.85479
Richford,town,1153,1170,1172,30.509,30.959,31.012,0.450,0.053,0.503,37.792,-76.195419,42.374457
Richland,town,5917,5824,5718,102.089,100.485,98.656,-1.605,-1.829,-3.433,57.959,-76.138035,43.546766
Richmond,town,3230,3452,3361,72.781,77.784,75.733,5.002,-2.050,2.952,44.380,-77.524506,42.791165
Richmondville,town,2397,2412,2610,79.260,79.756,86.303,0.496,6.547,7.043,30.242,-74.548462,42.638739
Ridgeway,town,7341,6886,6780,145.822,136.784,134.678,-9.038,-2.106,-11.144,50.342,-78.380559,43.261852
Riga,town,5114,5437,5590,144.726,153.867,158.197,9.141,4.330,13.471,35.336,-77.875269,43.080114
Ripley,town,2967,2636,2415,60.566,53.810,49.298,-6.757,-4.511,-11.268,48.988,-79.699215,42.232921
Riverhead,town,23011,27680,33506,109.239,131.404,159.062,22.165,27.658,49.822,210.648,-72.74908,41.008932
Rochester,city,231636,219773,210565,6323.278,5999.438,5748.075,-323.840,-251.363,-575.203,36.632,-77.61614,43.168006
Rochester,town,5679,7018,7313,63.648,78.655,81.961,15.007,3.306,18.313,89.225,-74.279773,41.813033
Rockland,town,4096,3913,3775,43.010,41.088,39.639,-1.922,-1.449,-3.371,95.235,-74.796984,41.938743
Rodman,town,1016,1147,1176,24.019,27.116,27.802,3.097,0.686,3.783,42.300,-75.910433,43.841861
Rome,city,44350,34950,33725,587.911,463.303,447.064,-124.608,-16.239,-140.847,75.437,-75.490855,43.226027
Romulus,town,2532,2036,4316,49.281,39.627,84.003,-9.654,44.376,34.722,51.379,-76.829632,42.716582
Root,town,1692,1752,1715,33.238,34.417,33.690,1.179,-0.727,0.452,50.906,-74.472869,42.841312
Rose,town,2424,2442,2369,71.494,72.024,69.871,0.531,-2.153,-1.622,33.905,-76.895366,43.161261
Roseboom,town,668,684,711,20.243,20.728,21.546,0.485,0.818,1.303,32.999,-74.727409,42.722371
Rosendale,town,6220,6352,6075,300.093,306.461,293.097,6.369,-13.364,-6.996,20.727,-74.078623,41.84731
Rossie,town,770,787,877,19.713,20.148,22.452,0.435,2.304,2.739,39.061,-75.630754,44.331925
Rotterdam,town,28395,28316,29094,776.881,774.719,796.005,-2.161,21.286,19.124,36.550,-74.013011,42.813451
Roxbury,town,2388,2509,2502,27.258,28.639,28.559,1.381,-0.080,1.301,87.608,-74.550603,42.298102
Royalton,town,7453,7710,7660,104.914,108.532,107.828,3.618,-0.704,2.914,71.039,-78.542538,43.151417
Rush,town,3217,3603,3478,104.835,117.414,113.340,12.579,-4.073,8.505,30.686,-77.672021,42.980626
Rushford,town,1176,1259,1150,32.553,34.850,31.833,2.298,-3.017,-0.720,36.126,-78.250223,42.392463
Russell,town,1716,1801,1856,17.677,18.553,19.119,0.876,0.567,1.442,97.074,-75.140841,44.405457
Russia,town,2294,2487,2587,37.986,41.182,42.838,3.196,1.656,4.852,60.391,-75.067189,43.301341
Rutland,town,3023,2959,3060,66.628,65.217,67.443,-1.411,2.226,0.815,45.372,-75.794858,43.947553
Rye,city,14936,14955,15720,1664.653,1666.770,1752.031,2.118,85.261,87.379,8.972,-73.687692,40.963037
Rye,town,39524,43880,45928,5329.282,5916.630,6192.775,587.348,276.145,863.494,7.416,-73.687803,41.006077
Salamanca,town,477,544,481,20.838,23.764,21.012,2.927,-2.752,0.175,22.891,-78.767201,42.16214
Salamanca,city,6566,6097,5815,1004.469,932.721,889.581,-71.748,-43.140,-114.888,6.537,-78.722898,42.164321
Salem,town,2608,2702,2715,49.784,51.579,51.827,1.794,0.248,2.043,52.386,-73.320024,43.163401
Salina,town,35145,33290,33710,2272.485,2152.541,2179.698,-119.945,27.157,-92.787,15.465,-76.17673,43.102369
Salisbury,town,1934,1953,1958,17.756,17.931,17.976,0.174,0.046,0.220,108.920,-74.794291,43.216333
Sand Lake,town,7642,7987,8530,212.082,221.656,236.726,9.574,15.069,24.644,36.033,-73.547724,42.628558
Sandy Creek,town,3454,3863,3939,80.613,90.159,91.932,9.546,1.774,11.319,42.847,-76.101733,43.634896
Sanford,town,2576,2477,2407,28.321,27.232,26.463,-1.088,-0.770,-1.858,90.959,-75.482018,42.091512
Sangerfield,town,2460,2610,2561,79.434,84.277,82.695,4.844,-1.582,3.261,30.969,-75.376365,42.900346
Santa Clara,town,311,395,345,1.623,2.061,1.800,0.438,-0.261,0.177,191.650,-74.376972,44.466559
Saranac,town,3710,4165,4007,32.018,35.945,34.581,3.927,-1.364,2.563,115.872,-73.809009,44.655394
Saratoga,town,5069,5141,5674,118.557,120.241,132.707,1.684,12.466,14.150,42.756,-73.647496,43.060221
Saratoga Springs,city,25001,26186,26586,864.675,905.659,919.493,40.984,13.834,54.818,28.914,-73.777273,43.067493
Sardinia,town,2667,2692,2775,52.802,53.297,54.940,0.495,1.643,2.138,50.509,-78.549337,42.561797
Saugerties,town,18467,19868,19482,271.449,292.043,286.369,20.594,-5.674,14.920,68.031,-73.996809,42.089231
Savannah,town,1768,1838,1730,48.881,50.817,47.831,1.935,-2.986,-1.051,36.169,-76.757779,43.079916
Scarsdale,town,16987,17823,17166,2544.784,2670.024,2571.600,125.239,-98.424,26.816,6.675,-73.777367,40.990277
Schaghticoke,town,7574,7456,7679,145.879,143.606,147.902,-2.273,4.295,2.022,51.920,-73.611568,42.884854
Schenectady,city,65566,61821,66135,5983.828,5642.044,6035.757,-341.784,393.714,51.929,10.957,-73.927459,42.802462
Schodack,town,11839,12536,12794,186.159,197.118,201.175,10.960,4.057,15.017,63.596,-73.685837,42.529683
Schoharie,town,3369,3299,3205,112.494,110.157,107.018,-2.337,-3.139,-5.476,29.948,-74.313088,42.680529
Schroeppel,town,8931,8566,8501,207.057,198.595,197.088,-8.462,-1.507,-9.969,43.133,-76.274767,43.265036
Schroon,town,1721,1759,1654,12.133,12.400,11.660,0.268,-0.740,-0.472,141.850,-73.766134,43.849932
Schuyler,town,3508,3385,3420,87.591,84.520,85.394,-3.071,0.874,-2.197,40.050,-75.090816,43.105134
Schuyler Falls,town,4787,5128,5181,128.472,137.624,139.047,9.152,1.422,10.574,37.261,-73.584244,44.657815
Scio,town,1965,1914,1833,55.667,54.223,51.928,-1.445,-2.295,-3.739,35.299,-78.005755,42.144959
Scipio,town,1517,1537,1713,38.725,39.236,43.728,0.511,4.493,5.003,39.174,-76.561294,42.794793
Scott,town,1167,1193,1176,52.244,53.408,52.647,1.164,-0.761,0.403,22.337,-76.227984,42.73465
Scriba,town,6472,7331,6840,158.536,179.578,167.551,21.042,-12.027,9.014,40.823,-76.418545,43.459892
Sempronius,town,802,893,895,26.977,30.038,30.106,3.061,0.067,3.128,29.729,-76.321061,42.740285
Seneca,town,2747,2731,2721,54.430,54.113,53.915,-0.317,-0.198,-0.515,50.468,-77.073628,42.833192
Seneca Falls,town,9384,9347,9040,341.777,340.430,329.249,-1.348,-11.181,-12.529,27.456,-76.790399,42.913629
Sennett,town,2913,3244,3595,101.265,112.771,124.973,11.507,12.202,23.708,28.766,-76.511963,42.972362
Seward,town,1651,1637,1763,45.182,44.799,48.247,-0.383,3.448,3.065,36.541,-74.579793,42.705331
Shandaken,town,3013,3235,3085,24.442,26.243,25.026,1.801,-1.217,0.584,123.270,-74.392383,42.069303
Sharon,town,1892,1843,1846,48.353,47.101,47.178,-1.252,0.077,-1.176,39.129,-74.59861,42.777675
Shawangunk,town,10081,12022,14332,177.938,212.199,252.972,34.260,40.773,75.034,56.654,-74.265519,41.633537
Shelby,town,5509,5420,5319,117.913,116.008,113.847,-1.905,-2.162,-4.067,46.721,-78.386771,43.173787
Sheldon,town,2487,2561,2409,52.413,53.973,50.769,1.560,-3.203,-1.644,47.450,-78.385933,42.737588
Shelter Island,town,2263,2228,2392,77.022,75.830,81.412,-1.191,5.582,4.391,29.381,-72.317498,41.067311
Sherburne,town,3903,3979,4048,89.547,91.291,92.874,1.744,1.583,3.327,43.586,-75.483301,42.692479
Sheridan,town,2582,2838,2673,69.033,75.878,71.466,6.845,-4.412,2.433,37.402,-79.235024,42.485713
Sherman,town,1505,1553,1653,41.227,42.541,45.281,1.315,2.739,4.054,36.506,-79.585626,42.129659
Sherrill,city,2864,3147,3071,1426.342,1567.283,1529.433,140.941,-37.850,103.091,2.008,-75.601006,43.070766
Sidney,town,6667,6109,5774,132.238,121.170,114.525,-11.068,-6.645,-17.712,50.417,-75.27719,42.307431
Skaneateles,town,7526,7323,7209,154.304,150.142,147.805,-4.162,-2.337,-6.499,48.774,-76.413081,42.932095
Smithfield,town,1053,1205,1288,43.461,49.735,53.160,6.274,3.426,9.699,24.229,-75.673158,42.968982
Smithtown,town,113406,115715,117801,1026.830,1047.737,1066.625,20.907,18.888,39.794,110.443,-73.226192,40.916815
Smithville,town,1167,1347,1330,22.966,26.508,26.173,3.542,-0.335,3.208,50.815,-75.758758,42.417303
Smyrna,town,1265,1418,1280,30.104,33.745,30.461,3.641,-3.284,0.357,42.021,-75.615144,42.691491
Sodus,town,8877,8949,8384,128.419,129.460,121.287,1.042,-8.174,-7.132,69.125,-77.051447,43.219691
Solon,town,1008,1108,1079,33.974,37.344,36.367,3.370,-0.977,2.393,29.670,-76.021743,42.604259
Somers,town,16216,18346,20434,504.898,571.217,636.229,66.319,65.012,131.331,32.117,-73.725209,41.305754
Somerset,town,2655,2865,2662,71.454,77.106,71.643,5.652,-5.463,0.188,37.157,-78.545706,43.336101
South Bristol,town,1663,1645,1590,39.585,39.156,37.847,-0.428,-1.309,-1.738,42.011,-77.409127,42.715719
South Valley,town,281,302,264,6.499,6.985,6.106,0.486,-0.879,-0.393,43.236,-78.989204,42.039453
Southampton,town,44976,54712,56790,150.967,183.647,190.622,32.680,6.975,39.655,297.919,-72.486687,40.873696
Southeast,town,14927,17316,18404,425.652,493.776,524.801,68.124,31.025,99.149,35.069,-73.597889,41.403193
Southold,town,19836,20599,21968,53.456,55.513,59.202,2.056,3.689,5.746,371.069,-72.346113,41.133103
Southport,town,11571,11185,10940,247.112,238.868,233.636,-8.243,-5.232,-13.476,46.825,-76.878051,42.04011
Spafford,town,1675,1661,1686,42.827,42.469,43.108,-0.358,0.639,0.281,39.111,-76.291132,42.834584
Sparta,town,1578,1627,1624,56.761,58.524,58.416,1.763,-0.108,1.655,27.801,-77.697534,42.627707
Spencer,town,2881,2979,3153,57.982,59.954,63.456,1.972,3.502,5.474,49.688,-76.478869,42.214389
Springfield,town,1267,1350,1358,28.046,29.883,30.060,1.837,0.177,2.014,45.176,-74.86198,42.833619
Springport,town,2198,2256,2367,81.723,83.880,88.007,2.156,4.127,6.284,26.896,-76.678621,42.853357
Springwater,town,2407,2322,2439,45.259,43.661,45.861,-1.598,2.200,0.602,53.182,-77.571178,42.625674
St Armand,town,1318,1321,1548,22.934,22.986,26.936,0.052,3.950,4.002,57.470,-74.028055,44.380349
St Johnsville,town,2773,2565,2631,159.044,147.114,150.900,-11.930,3.785,-8.144,17.435,-74.67795,43.00659
Stafford,town,2593,2409,2459,82.781,76.906,78.503,-5.874,1.596,-4.278,31.324,-78.082171,42.994253
Stamford,town,2047,1943,2267,42.120,39.980,46.646,-2.140,6.667,4.527,48.600,-74.658246,42.349433
Stanford,town,3495,3544,3823,69.807,70.785,76.358,0.979,5.573,6.551,50.067,-73.691821,41.888548
Stark,town,759,767,757,23.479,23.727,23.417,0.247,-0.309,-0.062,32.326,-74.821393,42.918297
Starkey,town,3173,3465,3573,80.935,88.383,91.138,7.448,2.755,10.203,39.204,-76.944167,42.521273
Stephentown,town,2521,2873,2903,43.704,49.806,50.326,6.102,0.520,6.622,57.684,-73.411072,42.556577
Sterling,town,3285,3432,3040,69.849,72.974,64.639,3.126,-8.335,-5.209,47.030,-76.658003,43.315563
Steuben,town,1006,1172,1100,23.452,27.322,25.644,3.870,-1.679,2.191,42.895,-75.264793,43.346605
Stillwater,town,7233,7522,8287,166.348,172.995,190.589,6.647,17.594,24.240,43.481,-73.688629,42.970069
Stockbridge,town,1968,2080,2103,61.974,65.501,66.225,3.527,0.724,4.251,31.755,-75.591759,42.985926
Stockholm,town,3533,3592,3665,37.499,38.126,38.900,0.626,0.775,1.401,94.215,-74.851648,44.746672
Stockport,town,3085,2933,2815,235.015,223.435,214.446,-11.579,-8.989,-20.569,13.127,-73.753787,42.318096
Stockton,town,2515,2331,2248,52.683,48.828,47.090,-3.854,-1.739,-5.593,47.739,-79.358617,42.296881
Stony Creek,town,670,743,767,8.101,8.984,9.274,0.883,0.290,1.173,82.702,-74.023225,43.426918
Stony Point,town,12814,14244,15059,405.937,451.238,477.057,45.301,25.819,71.120,31.566,-74.011401,41.259233
Stratford,town,586,640,610,7.636,8.340,7.949,0.704,-0.391,0.313,76.740,-74.629687,43.188805
Stuyvesant,town,2178,2188,2027,81.459,81.833,75.812,0.374,-6.022,-5.648,26.737,-73.752408,42.404286
Sullivan,town,14622,14991,15339,199.384,204.416,209.161,5.032,4.745,9.777,73.336,-75.879369,43.092169
Summerhill,town,1017,1098,1217,39.054,42.165,46.735,3.111,4.570,7.680,26.041,-76.316974,42.659588
Summit,town,973,1123,1148,26.001,30.009,30.677,4.008,0.668,4.676,37.422,-74.610452,42.570163
Sweden,town,14181,13716,14175,418.111,404.401,417.934,-13.710,13.533,-0.177,33.917,-77.940633,43.17907
Syracuse,city,163860,147306,145170,6392.088,5746.325,5663.001,-645.762,-83.324,-729.087,25.635,-76.143756,43.040638
Taghkanic,town,1111,1118,1310,27.754,27.929,32.726,0.175,4.796,4.971,40.030,-73.673394,42.133331
Taylor,town,542,500,523,18.029,16.632,17.397,-1.397,0.765,-0.632,30.063,-75.92746,42.608259
Theresa,town,2281,2414,2905,32.753,34.663,41.713,1.910,7.050,8.960,69.643,-75.783467,44.243068
Thompson,town,13711,14189,15308,156.925,162.395,175.203,5.471,12.807,18.278,87.373,-74.674407,41.647386
Throop,town,1792,1824,1990,95.737,97.446,106.315,1.710,8.868,10.578,18.718,-76.616884,42.981556
Thurman,town,1045,1199,1219,11.238,12.894,13.109,1.656,0.215,1.871,92.992,-73.981052,43.503934
Thurston,town,1054,1309,1350,28.830,35.805,36.927,6.975,1.121,8.097,36.559,-77.284266,42.227898
Ticonderoga,town,5149,5167,5042,58.480,58.685,57.265,0.204,-1.420,-1.215,88.047,-73.499326,43.851884
Tioga,town,4772,4840,4871,80.316,81.461,81.983,1.144,0.522,1.666,59.415,-76.366621,42.100646
Tompkins,town,994,1105,1247,9.549,10.615,11.979,1.066,1.364,2.430,104.099,-75.264548,42.110262
Tonawanda,city,17284,16136,15130,4370.090,4079.830,3825.472,-290.261,-254.357,-544.618,3.955,-78.879626,43.010751
Tonawanda,town,82464,78155,73567,4022.311,3812.133,3588.346,-210.178,-223.787,-433.965,20.502,-78.877525,42.983937
Torrey,town,1269,1307,1282,37.768,38.899,38.154,1.131,-0.744,0.387,33.600,-76.955479,42.674676
Trenton,town,4682,4670,4498,107.189,106.914,102.976,-0.275,-3.938,-4.212,43.680,-75.202042,43.254702
Triangle,town,3006,3032,2946,75.598,76.252,74.089,0.654,-2.163,-1.509,39.763,-75.920592,42.367799
Troupsburg,town,1006,1126,1291,16.421,18.380,21.073,1.959,2.693,4.652,61.262,-77.545495,42.047963
Troy,city,54269,49170,50129,4916.897,4454.916,4541.804,-461.981,86.888,-375.094,11.037,-73.675082,42.735402
Truxton,town,1064,1225,1133,23.832,27.439,25.378,3.606,-2.061,1.546,44.645,-76.026747,42.710637
Tully,town,2378,2709,2738,90.604,103.215,104.320,12.611,1.105,13.716,26.246,-76.135105,42.811444
Tupper Lake,town,6199,6137,5971,47.708,47.231,45.953,-0.477,-1.278,-1.755,129.936,-74.474633,44.242947
Turin,town,873,793,761,27.898,25.342,24.319,-2.557,-1.023,-3.579,31.292,-75.429592,43.663965
Tuscarora,town,1368,1400,1473,36.259,37.107,39.042,0.848,1.935,2.783,37.729,-77.258533,42.045329
Tusten,town,1271,1415,1515,25.673,28.582,30.602,2.909,2.020,4.929,49.507,-74.982235,41.583229
Tuxedo,town,3023,3334,3624,61.765,68.119,74.045,6.354,5.925,12.279,48.943,-74.178743,41.230451
Tyre,town,870,899,981,26.269,27.145,29.621,0.876,2.476,3.352,33.119,-76.791123,42.986359
Tyrone,town,1620,1714,1597,40.825,43.193,40.245,2.369,-2.948,-0.580,39.682,-77.046424,42.437041
Ulster,town,12329,12544,12327,417.853,425.139,417.785,7.287,-7.355,-0.068,29.506,-74.003932,41.970219
Ulysses,town,4906,4775,4900,133.019,129.467,132.856,-3.552,3.389,-0.163,36.882,-76.616849,42.512409
Unadilla,town,4343,4548,4392,94.072,98.512,95.133,4.440,-3.379,1.061,46.167,-75.327028,42.370326
Union,town,59786,56298,56346,1649.130,1552.917,1554.241,-96.213,1.324,-94.889,36.253,-76.032619,42.125922
Union Vale,town,3577,4546,4877,95.861,121.830,130.700,25.969,8.871,34.839,37.314,-73.685267,41.690544
Urbana,town,2807,2546,2343,63.581,57.669,53.071,-5.912,-4.598,-10.510,44.149,-77.227396,42.410823
Utica,city,68637,60651,62235,4051.124,3579.771,3673.263,-471.353,93.492,-377.862,16.943,-75.226391,43.09619
Van Buren,town,13367,12667,13185,369.142,349.811,364.116,-19.331,14.305,-5.026,36.211,-76.359015,43.121079
Van Etten,town,1507,1518,1557,36.231,36.496,37.433,0.264,0.938,1.202,41.594,-76.578881,42.212018
Varick,town,2161,1729,1857,47.374,37.903,40.709,-9.470,2.806,-6.664,45.616,-76.851925,42.780598
Venice,town,1315,1286,1368,31.876,31.173,33.161,-0.703,1.988,1.285,41.254,-76.543244,42.719116
Vernon,town,5338,5335,5408,140.188,140.110,142.027,-0.079,1.917,1.838,38.077,-75.532123,43.065804
Verona,town,6460,6425,6293,92.888,92.385,90.487,-0.503,-1.898,-2.401,69.546,-75.618818,43.159241
Vestal,town,26733,26535,28043,508.432,504.666,533.347,-3.766,28.680,24.915,52.579,-76.025816,42.049108
Veteran,town,3468,3271,3313,90.477,85.338,86.434,-5.140,1.096,-4.044,38.330,-76.788987,42.246727
Victor,town,7191,9977,14275,199.633,276.977,396.296,77.344,119.319,196.663,36.021,-77.427729,42.989426
Victory,town,1535,1838,1660,44.549,53.343,48.177,8.794,-5.166,3.628,34.456,-76.653862,43.207828
Vienna,town,5564,5819,5440,58.534,61.217,57.230,2.683,-3.987,-1.305,95.055,-75.777746,43.234432
Villenova,town,1065,1121,1110,29.293,30.833,30.531,1.540,-0.303,1.238,36.357,-79.119453,42.391751
Virgil,town,2172,2287,2401,45.844,48.271,50.677,2.427,2.406,4.833,47.378,-76.166429,42.515791
Volney,town,5676,6094,5926,115.332,123.825,120.411,8.493,-3.414,5.080,49.215,-76.373187,43.359399
Waddington,town,1990,2212,2266,33.602,37.350,38.262,3.749,0.912,4.660,59.223,-75.195201,44.83278
Wales,town,2917,2960,3005,81.684,82.888,84.148,1.204,1.260,2.464,35.711,-78.52127,42.737147
Wallkill,town,23016,24659,27426,367.029,393.230,437.354,26.200,44.125,70.325,62.709,-74.393977,41.485357
Walton,town,5953,5607,5576,60.887,57.348,57.031,-3.539,-0.317,-3.856,97.772,-75.127664,42.17389
Walworth,town,6945,8402,9449,204.765,247.723,278.592,42.958,30.870,73.827,33.917,-77.313125,43.163333
Wappinger,town,26008,26274,27048,911.735,921.060,948.193,9.325,27.133,36.458,28.526,-73.891806,41.589931
Ward,town,334,390,368,11.439,13.357,12.604,1.918,-0.753,1.164,29.197,-77.898901,42.225747
Warren,town,1077,1136,1143,28.051,29.588,29.770,1.537,0.182,1.719,38.394,-74.933354,42.891814
Warrensburg,town,4174,4255,4094,64.507,65.759,63.271,1.252,-2.488,-1.236,64.706,-73.794884,43.505564
Warsaw,town,5342,5423,5064,150.569,152.852,142.733,2.283,-10.119,-7.836,35.479,-78.132091,42.739033
Warwick,town,27193,30764,32065,258.565,292.520,304.890,33.955,12.371,46.325,105.169,-74.36106,41.259504
Washington,town,4479,4742,4741,76.201,80.676,80.659,4.474,-0.017,4.457,58.779,-73.674079,41.79172
Waterford,town,8695,8515,8423,1169.415,1145.206,1132.833,-24.209,-12.373,-36.582,7.435,-73.691627,42.80439
Waterloo,town,7765,7866,7642,356.238,360.871,350.595,4.634,-10.277,-5.643,21.797,-76.91225,42.915555
Watertown,city,29429,26705,27023,3134.300,2844.183,2878.052,-290.116,33.868,-256.248,9.389,-75.909511,43.973385
Watertown,town,4341,4482,4470,121.143,125.078,124.743,3.935,-0.335,3.600,35.834,-75.918659,43.932861
Watervliet,city,11061,10207,10254,7511.807,6931.833,6963.752,-579.973,31.919,-548.054,1.472,-73.706878,42.72442
Watson,town,1613,1987,1881,13.779,16.974,16.068,3.195,-0.905,2.289,117.063,-75.253543,43.824547
Waverly,town,1068,1118,1022,8.448,8.844,8.084,0.396,-0.759,-0.364,126.417,-74.517057,44.536196
Wawarsing,town,12348,12889,13157,92.038,96.071,98.068,4.032,1.998,6.030,134.162,-74.416688,41.752561
Wawayanda,town,5518,6273,7266,157.217,178.728,207.020,21.511,28.292,49.803,35.098,-74.461721,41.384265
Wayland,town,4311,4314,4102,108.974,109.050,103.691,0.076,-5.359,-5.283,39.560,-77.591486,42.528596
Wayne,town,1029,1165,1041,45.553,51.574,46.084,6.021,-5.489,0.531,22.589,-77.135186,42.441019
Webb,town,1637,1912,1807,3.385,3.954,3.737,0.569,-0.217,0.352,483.592,-74.993739,43.835233
Webster,town,31639,37926,42641,914.059,1095.693,1231.910,181.633,136.218,317.851,34.614,-77.445668,43.229285
Wells,town,706,737,674,3.961,4.135,3.781,0.174,-0.353,-0.180,178.246,-74.273332,43.473657
Wellsville,town,8116,7678,7397,221.098,209.166,201.511,-11.932,-7.655,-19.587,36.708,-77.921993,42.120562
West Almond,town,277,353,334,7.677,9.783,9.257,2.106,-0.527,1.580,36.083,-77.897856,42.304341
West Bloomfield,town,2536,2549,2466,99.550,100.060,96.802,0.510,-3.258,-2.748,25.475,-77.518321,42.900752
West Monroe,town,4393,4428,4252,113.850,114.757,110.196,0.907,-4.561,-3.654,38.586,-76.076196,43.296269
West Seneca,town,47830,45920,44711,2232.558,2143.405,2086.973,-89.153,-56.432,-145.585,21.424,-78.750854,42.837448
West Sparta,town,1335,1244,1255,39.936,37.214,37.543,-2.722,0.329,-2.393,33.428,-77.789221,42.610503
West Turin,town,1753,1674,1524,17.129,16.357,14.892,-0.772,-1.466,-2.238,102.339,-75.509821,43.593995
West Union,town,412,399,312,10.039,9.722,7.602,-0.317,-2.120,-2.437,41.041,-77.691241,42.049799
Westerlo,town,3325,3466,3361,56.822,59.232,57.438,2.410,-1.794,0.615,58.516,-74.039777,42.496488
Western,town,2057,2029,1951,37.737,37.223,35.792,-0.514,-1.431,-1.945,54.509,-75.38978,43.338133
Westfield,town,5194,5232,4896,109.584,110.385,103.297,0.802,-7.089,-6.287,47.398,-79.595406,42.277966
Westford,town,634,784,868,18.765,23.205,25.691,4.440,2.486,6.926,33.786,-74.816309,42.641007
Westmoreland,town,5737,6207,6138,132.769,143.646,142.049,10.877,-1.597,9.280,43.210,-75.447632,43.121622
Westport,town,1446,1362,1312,21.681,20.422,19.672,-1.259,-0.750,-2.009,66.694,-73.449366,44.185159
Westville,town,1620,1823,1819,46.585,52.423,52.308,5.838,-0.115,5.722,34.775,-74.386649,44.942646
Wethersfield,town,794,891,883,21.965,24.648,24.427,2.683,-0.221,2.462,36.149,-78.249955,42.652103
Wheatfield,town,11125,14086,18117,385.330,487.888,627.508,102.558,139.619,242.178,28.871,-78.883419,43.097436
Wheatland,town,5093,5149,4775,165.596,167.417,155.257,1.821,-12.160,-10.340,30.755,-77.817423,43.012463
Wheeler,town,1084,1263,1260,23.512,27.394,27.329,3.883,-0.065,3.817,46.104,-77.342575,42.442466
White Creek,town,3196,3411,3356,68.242,72.833,71.658,4.591,-1.174,3.416,46.833,-73.328443,42.998619
White Plains,city,48718,53077,56853,4925.776,5366.505,5748.289,440.729,381.784,822.513,9.890,-73.754692,41.0221
Whitehall,town,4409,4035,4042,74.951,68.593,68.712,-6.358,0.119,-6.239,58.825,-73.380501,43.536771
Whitestown,town,18985,18635,18667,696.994,684.144,685.319,-12.850,1.175,-11.675,27.238,-75.340308,43.135016
Willet,town,892,1011,1043,34.248,38.817,40.045,4.569,1.229,5.798,26.045,-75.916025,42.450704
Williamson,town,6540,6777,6984,187.808,194.614,200.559,6.806,5.944,12.750,34.823,-77.192012,43.24172
Williamstown,town,1279,1350,1277,32.641,34.453,32.590,1.812,-1.863,-0.051,39.183,-75.896565,43.458319
Willing,town,1428,1371,1228,39.252,37.685,33.754,-1.567,-3.931,-5.497,36.381,-77.898234,42.042297
Willsboro,town,1736,1903,2025,23.625,25.898,27.558,2.273,1.660,3.933,73.481,-73.391531,44.385798
Wilmington,town,1020,1131,1253,15.582,17.277,19.141,1.696,1.864,3.559,65.461,-73.84306,44.375606
Wilna,town,6899,6235,6427,86.910,78.545,80.964,-8.365,2.419,-5.946,79.381,-75.590441,44.056306
Wilson,town,5761,5840,5993,116.461,118.058,121.151,1.597,3.093,4.690,49.467,-78.823829,43.269184
Wilton,town,10623,12511,16173,296.360,349.031,451.193,52.671,102.162,154.834,35.845,-73.727649,43.149908
Windham,town,1682,1660,1703,37.101,36.615,37.564,-0.485,0.948,0.463,45.336,-74.208538,42.31477
Windsor,town,6440,6421,6274,69.419,69.215,67.630,-0.205,-1.585,-1.789,92.769,-75.659606,42.06359
Winfield,town,2146,2202,2086,90.707,93.074,88.171,2.367,-4.903,-2.536,23.659,-75.163348,42.898243
Wirt,town,1143,1215,1111,31.733,33.732,30.845,1.999,-2.887,-0.888,36.019,-78.132411,42.129882
Wolcott,town,4283,4692,4453,107.221,117.460,111.476,10.239,-5.983,4.256,39.946,-76.769146,43.269627
Woodbury,town,8236,9460,11353,221.115,253.977,304.799,32.861,50.822,83.683,37.248,-74.100773,41.328291
Woodhull,town,1518,1524,1719,27.397,27.506,31.025,0.108,3.519,3.628,55.407,-77.392649,42.058654
Woodstock,town,6290,6241,5884,92.953,92.229,86.953,-0.724,-5.276,-6.000,67.669,-74.165563,42.055865
Worcester,town,2070,2207,2220,44.197,47.122,47.400,2.925,0.278,3.203,46.836,-74.714183,42.583333
Worth,town,219,234,231,5.065,5.412,5.342,0.347,-0.069,0.278,43.240,-75.844355,43.742366
Wright,town,1385,1547,1539,48.415,54.078,53.798,5.663,-0.280,5.383,28.607,-74.216093,42.667465
Yates,town,2497,2510,2559,66.701,67.048,68.357,0.347,1.309,1.656,37.436,-78.388302,43.339454
Yonkers,city,188082,196086,195976,9293.625,9689.124,9683.689,395.499,-5.435,390.063,20.238,-73.867363,40.946589
York,town,3513,3219,3397,71.624,65.630,69.259,-5.994,3.629,-2.365,49.048,-77.886886,42.866443
Yorkshire,town,3905,4210,3913,105.407,113.640,105.623,8.233,-8.017,0.216,37.047,-78.512335,42.483618
Yorktown,town,33467,36318,36081,848.320,920.587,914.579,72.267,-6.007,66.260,39.451,-73.809101,41.272568